{"features":[{"geometry":{"coordinates":[-8.73275663238464,42.2214002239484],"type":"Point"},"type":"Feature","properties":{"address":"Plaza de América, 1","image_uri":"http://www.turismodevigo.org/sites/turismodevigo/files/com051.jpg","postcode":"36211","description":"El Centro comercial cuenta con diferentes tiendas y espacios de ocio.","lon":-8.73275663238464,"title":"Centro comercial Camelias","type":26,"layer":"compras","phone":"986208311","web":"www.cameliascc.com","subcategoria":"Centro comercial","idpoi":9081,"mp3_uri":null,"lang":"es-ES","lat":42.2214002239484}},{"geometry":{"coordinates":[-8.72409382098312,42.2207649203632],"type":"Point"},"type":"Feature","properties":{"address":"Rua Miradoiro, 2","image_uri":"http://www.turismodevigo.org/sites/turismodevigo/files/com052.jpg","postcode":"36210","description":"El Centro comercial cuenta con diferentes tiendas y espacios de ocio.","lon":-8.72409382098312,"title":"Centro comercial Gran Vía de Vigo","type":26,"layer":"compras","phone":"986447500","web":"www.granviadevigo.com","subcategoria":"Centro comercial","idpoi":9082,"mp3_uri":null,"lang":"es-ES","lat":42.2207649203632}},{"geometry":{"coordinates":[-8.6957058929659,42.24343570461],"type":"Point"},"type":"Feature","properties":{"address":"Travesía de Vigo, 2","image_uri":"http://www.turismodevigo.org/sites/turismodevigo/files/com053.jpg","postcode":"36207","description":"El Centro comercial cuenta con diferentes tiendas y espacios de ocio.","lon":-8.6957058929659,"title":"Centro comercial Travesía de Vigo","type":26,"layer":"compras","phone":"986277908","web":"www.cctravesia.com","subcategoria":"Centro comercial","idpoi":9083,"mp3_uri":null,"lang":"es-ES","lat":42.24343570461}},{"geometry":{"coordinates":[-8.72091305321786,42.2361723410513],"type":"Point"},"type":"Feature","properties":{"address":"Príncipe, 51","image_uri":"http://www.turismodevigo.org/sites/turismodevigo/files/com050.jpg","postcode":"36202","description":"Se trata de un centro comercial abierto situado en la céntrica calle Príncipe de Vigo.","lon":-8.72091305321786,"title":"Centro Príncipe","type":26,"layer":"compras","phone":"986113337","web":"www.centroprincipe.com","subcategoria":"Centro comercial abierto","idpoi":9080,"mp3_uri":null,"lang":"es-ES","lat":42.2361723410513}},{"geometry":{"coordinates":[-8.71716028046126,42.2320835919022],"type":"Point"},"type":"Feature","properties":{"address":"Urzáiz, 20","image_uri":"http://www.turismodevigo.org/sites/turismodevigo/files/com049.jpg","postcode":"36201","description":"El Centro comercial cuenta con diferentes tiendas y espacios de ocio.","lon":-8.71716028046126,"title":"El Corte Inglés","type":26,"layer":"compras","phone":"986443130","web":"www.elcorteingles.es","subcategoria":"Centro comercial","idpoi":9079,"mp3_uri":null,"lang":"es-ES","lat":42.2320835919022}},{"geometry":{"coordinates":[-8.72083763810832,42.2314025791078],"type":"Point"},"type":"Feature","properties":{"address":"Plaza de Francisco Fernández Riego","image_uri":"http://www.turismodevigo.org/sites/turismodevigo/files/com048.jpg","postcode":"36203","description":"El Centro comercial cuenta con diferentes tiendas y espacios de ocio.","lon":-8.72083763810832,"title":"Plaza Elíptica","type":26,"layer":"compras","phone":"986485650","web":"www.plazaeliptica.com","subcategoria":"Centro comercial","idpoi":9078,"mp3_uri":null,"lang":"es-ES","lat":42.2314025791078}},{"geometry":{"coordinates":[-8.72786087185859,42.2406308169613],"type":"Point"},"type":"Feature","properties":{"address":"Cánovas del Castillo, 1","image_uri":"http://www.turismodevigo.org/sites/turismodevigo/files/com047.jpg","postcode":"36202","description":"El Centro comercial cuenta con diferentes tiendas y espacios de ocio.","lon":-8.72786087185859,"title":"Centro comercial A Laxe","type":26,"layer":"compras","phone":"986443788","web":"www.alaxecentrocomercial.com","subcategoria":"Centro comercial","idpoi":9077,"mp3_uri":null,"lang":"es-ES","lat":42.2406308169613}}],"type":"FeatureCollection"}