{"features":[{"geometry":{"coordinates":[-8.72778130000006,42.2366836],"type":"Point"},"type":"Feature","properties":{"address":"Paseo de Alfonso XII 5 1º","image_uri":"http://www.turismodevigo.org/sites/turismodevigo/files/com0621.jpg","postcode":null,"description":"Showroom de HeyJuddy! y Candacol. Complementos y ropa hecha a mano y con amor en Vigo. Abierto todos los viernes, de 17 a 21h. saloncino@gmail.com","lon":-8.72778130000006,"title":"Salonciño","type":27,"layer":"compras","phone":null,"web":"https://www.facebook.com/pages/Salonci%C3%B1o/519596521413812?ref=hl","subcategoria":null,"idpoi":10263,"mp3_uri":null,"lang":"es-ES","lat":42.2366836}},{"geometry":{"coordinates":[-8.73253308842246,42.2233590080636],"type":"Point"},"type":"Feature","properties":{"address":"Calle Pí y Margall 145","image_uri":"http://www.turismodevigo.org/sites/turismodevigo/files/com008.jpg","postcode":"36211","description":"Diseño y Fabricación de Joyería PIEDRAS PRECIOSAS (precios especiales a profesionales)","lon":-8.73253308842246,"title":"Jaime Quirós García","type":27,"layer":"compras","phone":"986290606","web":null,"subcategoria":"Joyerías y talleres","idpoi":9038,"mp3_uri":null,"lang":"es-ES","lat":42.2233590080636}},{"geometry":{"coordinates":[-8.74503341772543,42.2189146938201],"type":"Point"},"type":"Feature","properties":{"address":"Avda. Castelao, 67, 7ºB","image_uri":"http://www.turismodevigo.org/sites/turismodevigo/files/com015.jpg","postcode":"36209","description":"Fabricación de piezas de cerámica.","lon":-8.74503341772543,"title":"María del Carmen Rial Guijarro","type":27,"layer":"compras","phone":null,"web":null,"subcategoria":"Ceramista","idpoi":9045,"mp3_uri":null,"lang":"es-ES","lat":42.2189146938201}},{"geometry":{"coordinates":[-8.72169919782491,42.2411366905756],"type":"Point"},"type":"Feature","properties":{"address":"Luis Taboada, nº 9 2º","image_uri":"http://www.turismodevigo.org/sites/turismodevigo/files/com014.jpg","postcode":"36202","description":"Fabricación de tiejidos a mano.","lon":-8.72169919782491,"title":"María del Carmen Pérez Suárez","type":27,"layer":"compras","phone":null,"web":null,"subcategoria":"Tejedor","idpoi":9044,"mp3_uri":null,"lang":"es-ES","lat":42.2411366905756}},{"geometry":{"coordinates":[-8.71642139450341,42.2372477396925],"type":"Point"},"type":"Feature","properties":{"address":"Uruguay, 17. 2º C","image_uri":"http://www.turismodevigo.org/sites/turismodevigo/files/com013.jpg","postcode":"36201","description":"Encuadernación de todo tipo de textos.","lon":-8.71642139450341,"title":"María Celia Fernández Rodríguez","type":27,"layer":"compras","phone":null,"web":null,"subcategoria":"Encuadernación","idpoi":9043,"mp3_uri":null,"lang":"es-ES","lat":42.2372477396925}},{"geometry":{"coordinates":[-8.67669856096105,42.2291917450995],"type":"Point"},"type":"Feature","properties":{"address":"Rúa da Coutada Nova, 5","image_uri":"http://www.turismodevigo.org/sites/turismodevigo/files/com012.jpg","postcode":"36215","description":"Fabricación de piezas de cerámica.","lon":-8.67669856096105,"title":"María Belén Soto Cameselle","type":27,"layer":"compras","phone":null,"web":null,"subcategoria":"Ceramista","idpoi":9042,"mp3_uri":null,"lang":"es-ES","lat":42.2291917450995}},{"geometry":{"coordinates":[-8.7083657691151,42.2328032027701],"type":"Point"},"type":"Feature","properties":{"address":"Urzáiz, 114. 5º A","image_uri":"http://www.turismodevigo.org/sites/turismodevigo/files/com011.jpg","postcode":"36206","description":"Fabricación de piezas de marroquinería.","lon":-8.7083657691151,"title":"Mª Laura Teresa Fernández Rodríguez","type":27,"layer":"compras","phone":null,"web":null,"subcategoria":"Marroquineria","idpoi":9041,"mp3_uri":null,"lang":"es-ES","lat":42.2328032027701}},{"geometry":{"coordinates":[-8.72169919782491,42.2411366905756],"type":"Point"},"type":"Feature","properties":{"address":"Luis Taboada, 9. 2º","image_uri":"http://www.turismodevigo.org/sites/turismodevigo/files/com010.jpg","postcode":"36202","description":"Adona es un taller de tejido donde se trabaja siguiendo técnicas tradicionales a partir de materiales como el lino o la seda entre otros. Se hacen también por encargo tejidos tradicionales como el \"piote\" para los trajes gallegos.","lon":-8.72169919782491,"title":"Mª Carmen Pérez Suárez","type":27,"layer":"compras","phone":"986113216","web":null,"subcategoria":"Tejedora","idpoi":9040,"mp3_uri":null,"lang":"es-ES","lat":42.2411366905756}},{"geometry":{"coordinates":[-8.726699620998,42.22447005774],"type":"Point"},"type":"Feature","properties":{"address":"Barcelona, 76. 4º D","image_uri":"http://www.turismodevigo.org/sites/turismodevigo/files/com009.jpg","postcode":"36211","description":"Diseño y Fabricación de Joyería PIEDRAS PRECIOSAS (precios especiales a profesionales)","lon":-8.726699620998,"title":"José Antonio Golpe Martínez","type":27,"layer":"compras","phone":"609520704","web":null,"subcategoria":"Joyerías y talleres","idpoi":9039,"mp3_uri":null,"lang":"es-ES","lat":42.22447005774}},{"geometry":{"coordinates":[-8.70892132460851,42.2333587654955],"type":"Point"},"type":"Feature","properties":{"address":"Esperanto, 2. Baixo","image_uri":null,"postcode":"36204","description":"Diseño y Fabricación de Joyería PIEDRAS PRECIOSAS (precios especiales a profesionales)","lon":-8.70892132460851,"title":"Gaxela D´Tor S.L.","type":27,"layer":"compras","phone":"986437435","web":"http://gaxela.blogspot.com.es/","subcategoria":"Joyerías y talleres","idpoi":9037,"mp3_uri":null,"lang":"es-ES","lat":42.2333587654955}},{"geometry":{"coordinates":[-8.72947729508322,42.2325256534964],"type":"Point"},"type":"Feature","properties":{"address":"Chile, 8. Baixo","image_uri":"http://www.turismodevigo.org/sites/turismodevigo/files/com006.jpg","postcode":"36202","description":"Restauración de objetos de madera, papel, etc.","lon":-8.72947729508322,"title":"Elvira Pérez Baz","type":27,"layer":"compras","phone":"619465327","web":null,"subcategoria":"Restauración de objetos diversos","idpoi":9036,"mp3_uri":null,"lang":"es-ES","lat":42.2325256534964}},{"geometry":{"coordinates":[-8.69253245914986,42.2216913520977],"type":"Point"},"type":"Feature","properties":{"address":"C/ Padre Sarmiento 22","image_uri":"http://www.turismodevigo.org/sites/turismodevigo/files/com005.jpg","postcode":"36214","description":"Trabajos con todo tipo de materiales reciclados.","lon":-8.69253245914986,"title":"C.G. Taller de Cristal Reciclado","type":27,"layer":"compras","phone":"667351932","web":"http://cgrecicladoartistico.blogspot.com.es/2010/03/reciclado-artistico-cg.html","subcategoria":"Reciclado artístico","idpoi":9035,"mp3_uri":null,"lang":"es-ES","lat":42.2216913520977}},{"geometry":{"coordinates":[-8.73503331837823,42.21974680876],"type":"Point"},"type":"Feature","properties":{"address":"Miguel Hernández, Nº 1","image_uri":"http://www.turismodevigo.org/sites/turismodevigo/files/com004.jpg","postcode":"36209","description":"Trabajos de encuadernación y fabricación de sellos y grabados.","lon":-8.73503331837823,"title":"Asoc. Padres de Minusválidos Prov. Pontevedra","type":27,"layer":"compras","phone":"986294422","web":null,"subcategoria":"Grabados","idpoi":9034,"mp3_uri":null,"lang":"es-ES","lat":42.21974680876}},{"geometry":{"coordinates":[-8.69475447678261,42.2286363843898],"type":"Point"},"type":"Feature","properties":{"address":"Sta Cristina, 15","image_uri":"http://www.turismodevigo.org/sites/turismodevigo/files/com003.jpg","postcode":"36214","description":"Artesano que trabaja con cuero y pieles para elaborar artículos tales como bolsos, carteras o billeteros entre otros.","lon":-8.69475447678261,"title":"Álvaro Rodríguez Caride","type":27,"layer":"compras","phone":"986261062","web":null,"subcategoria":"Marroquinería","idpoi":9033,"mp3_uri":null,"lang":"es-ES","lat":42.2286363843898}},{"geometry":{"coordinates":[-8.71336587739517,42.2322477006073],"type":"Point"},"type":"Feature","properties":{"address":"Pizarro, 71. Baixo","image_uri":"http://www.turismodevigo.org/sites/turismodevigo/files/com002.jpg","postcode":"36204","description":"Artesano que trabaja con metales preciosos, principalmente oro y plata.","lon":-8.71336587739517,"title":"Alberto Ignacio Montenegro García","type":27,"layer":"compras","phone":"986481168","web":null,"subcategoria":"Orfebre","idpoi":9032,"mp3_uri":null,"lang":"es-ES","lat":42.2322477006073}},{"geometry":{"coordinates":[-8.69169911271205,42.2158585579739],"type":"Point"},"type":"Feature","properties":{"address":"Doutor Paz Pardo, 97","image_uri":"http://www.turismodevigo.org/sites/turismodevigo/files/com016.jpg","postcode":"36214","description":"Fabricación de trajes tradicionales.","lon":-8.69169911271205,"title":"María José Martínez Pérez","type":27,"layer":"compras","phone":null,"web":null,"subcategoria":"Trajes tradicionales populares","idpoi":9046,"mp3_uri":null,"lang":"es-ES","lat":42.2158585579739}},{"geometry":{"coordinates":[-8.71003244705988,42.2339143335162],"type":"Point"},"type":"Feature","properties":{"address":"Gregorio Fernández, 14. 4º V","image_uri":"http://www.turismodevigo.org/sites/turismodevigo/files/com017.jpg","postcode":"36204","description":"Fabricación de piezas de marroquinería.","lon":-8.71003244705988,"title":"María Nieves Costilla Arroyo","type":27,"layer":"compras","phone":null,"web":null,"subcategoria":"Marroquineria","idpoi":9047,"mp3_uri":null,"lang":"es-ES","lat":42.2339143335162}},{"geometry":{"coordinates":[-8.72864392303631,42.2336367562534],"type":"Point"},"type":"Feature","properties":{"address":"Rúa Romil, 27, 3ºD","image_uri":"http://www.turismodevigo.org/sites/turismodevigo/files/com030.jpg","postcode":"36202","description":"Creación de todo tipo de figuras en cartón-piedra.","lon":-8.72864392303631,"title":"Paz Luaces López","type":27,"layer":"compras","phone":null,"web":null,"subcategoria":"Escultor","idpoi":9060,"mp3_uri":null,"lang":"es-ES","lat":42.2336367562534}},{"geometry":{"coordinates":[-8.73503320831943,42.2197479198847],"type":"Point"},"type":"Feature","properties":{"address":"R/ Miguel Hernández, Nº 1","image_uri":"http://www.turismodevigo.org/sites/turismodevigo/files/com029.jpg","postcode":"36209","description":"Encuadernación de todo tipo de textos.","lon":-8.73503320831943,"title":"Asoc. Padres de Minusválidos Prov. Pontevedra","type":27,"layer":"compras","phone":"986294422","web":null,"subcategoria":"Encuadernador","idpoi":9059,"mp3_uri":null,"lang":"es-ES","lat":42.2197479198847}},{"geometry":{"coordinates":[-8.74947780658581,42.2261369725607],"type":"Point"},"type":"Feature","properties":{"address":"Avda. Eduardo Cabello, 2","image_uri":"http://www.turismodevigo.org/sites/turismodevigo/files/com028.jpg","postcode":"36208","description":"Creación de todo tipo de elementos en madera.","lon":-8.74947780658581,"title":"Alfredo Lagos Silva y Hermanos, C.B.","type":27,"layer":"compras","phone":null,"web":null,"subcategoria":"Carpintería","idpoi":9058,"mp3_uri":null,"lang":"es-ES","lat":42.2261369725607}},{"geometry":{"coordinates":[-8.72531040077401,42.2400256171529],"type":"Point"},"type":"Feature","properties":{"address":"Méndez Núñez, 16. 2","image_uri":"http://www.turismodevigo.org/sites/turismodevigo/files/com027.jpg","postcode":"36202","description":"Fabricación y creación de todo tipo de joyas.","lon":-8.72531040077401,"title":"Virginia Rodríguez Lorenzo","type":27,"layer":"compras","phone":null,"web":null,"subcategoria":"Joyero","idpoi":9057,"mp3_uri":null,"lang":"es-ES","lat":42.2400256171529}},{"geometry":{"coordinates":[-8.71197693455081,42.2336365766161],"type":"Point"},"type":"Feature","properties":{"address":"Brasil, 37. Baixo","image_uri":"http://www.turismodevigo.org/sites/turismodevigo/files/com026.jpg","postcode":"36204","description":"Restauración y reparación de todo tipo de mobiliario antiguo.","lon":-8.71197693455081,"title":"Tomos Conservación Restauración S.L.","type":27,"layer":"compras","phone":"986471810","web":null,"subcategoria":"Restauradores","idpoi":9056,"mp3_uri":null,"lang":"es-ES","lat":42.2336365766161}},{"geometry":{"coordinates":[-8.75892262946171,42.2161370622324],"type":"Point"},"type":"Feature","properties":{"address":"Camiño Paio Nº 5","image_uri":"http://www.turismodevigo.org/sites/turismodevigo/files/com025.jpg","postcode":"36212","description":"Realización de todo tipo de trabajos de tricotaje.","lon":-8.75892262946171,"title":"Rosa Valente González","type":27,"layer":"compras","phone":null,"web":null,"subcategoria":"Calceta","idpoi":9055,"mp3_uri":null,"lang":"es-ES","lat":42.2161370622324}},{"geometry":{"coordinates":[-8.71086579685512,42.2339143423222],"type":"Point"},"type":"Feature","properties":{"address":"Rúa Urzaiz, 85, Entrechán","image_uri":"http://www.turismodevigo.org/sites/turismodevigo/files/com024.jpg","postcode":"36204","description":"Decoración artesanal de todo tipo de telas.","lon":-8.71086579685512,"title":"Roberto Alonso Gonzalez","type":27,"layer":"compras","phone":null,"web":null,"subcategoria":"Decorador","idpoi":9054,"mp3_uri":null,"lang":"es-ES","lat":42.2339143423222}},{"geometry":{"coordinates":[-8.72586648359765,42.2136367027101],"type":"Point"},"type":"Feature","properties":{"address":"Corredoura, 45","image_uri":"http://www.turismodevigo.org/sites/turismodevigo/files/com023.jpg","postcode":"36213","description":"Fudición artesanal para la creación de todo tipo de piezas.","lon":-8.72586648359765,"title":"Raúl Álvarez Fernández","type":27,"layer":"compras","phone":null,"web":null,"subcategoria":"Fundidor","idpoi":9053,"mp3_uri":null,"lang":"es-ES","lat":42.2136367027101}},{"geometry":{"coordinates":[-8.74753353595585,42.215303605534],"type":"Point"},"type":"Feature","properties":{"address":"Tomiño, 4. 1º B","image_uri":"http://www.turismodevigo.org/sites/turismodevigo/files/com022.jpg","postcode":"36209","description":"Fabricación de piezas de marroquinería.","lon":-8.74753353595585,"title":"Patricia Puga Gómez","type":27,"layer":"compras","phone":null,"web":null,"subcategoria":"Marroquineria","idpoi":9052,"mp3_uri":null,"lang":"es-ES","lat":42.215303605534}},{"geometry":{"coordinates":[-8.6989211974313,42.2300253194154],"type":"Point"},"type":"Feature","properties":{"address":"Burgos, 44. Baixo","image_uri":"http://www.turismodevigo.org/sites/turismodevigo/files/com021.jpg","postcode":"36214","description":"Encuadernación de todo tipo de textos.","lon":-8.6989211974313,"title":"Pablo Otero Pino","type":27,"layer":"compras","phone":null,"web":null,"subcategoria":"Encuadernación","idpoi":9051,"mp3_uri":null,"lang":"es-ES","lat":42.2300253194154}},{"geometry":{"coordinates":[-8.72336597332414,42.237247815442],"type":"Point"},"type":"Feature","properties":{"address":"López de Neira","image_uri":"http://www.turismodevigo.org/sites/turismodevigo/files/com020.jpg","postcode":"36202","description":"Fabricación de todo tipo de joyas.","lon":-8.72336597332414,"title":"Obradoiro de Joyas Artesanales, CB (ATIPIKA)","type":27,"layer":"compras","phone":"886115964","web":null,"subcategoria":"Joyero","idpoi":9050,"mp3_uri":null,"lang":"es-ES","lat":42.237247815442}},{"geometry":{"coordinates":[-8.72003259132979,42.2364144449299],"type":"Point"},"type":"Feature","properties":{"address":"Ronda de don Bosco, 49. Baixo","image_uri":"http://www.turismodevigo.org/sites/turismodevigo/files/com019.jpg","postcode":"36201","description":"Fabricación y creación de todo tipo de joyas.","lon":-8.72003259132979,"title":"Miguel Ángel Sánchez Iglesias","type":27,"layer":"compras","phone":null,"web":null,"subcategoria":"Joyero","idpoi":9049,"mp3_uri":null,"lang":"es-ES","lat":42.2364144449299}},{"geometry":{"coordinates":[-8.72197733452707,42.2230811165324],"type":"Point"},"type":"Feature","properties":{"address":"Castaña","image_uri":"http://www.turismodevigo.org/sites/turismodevigo/files/com018.jpg","postcode":"36204","description":"Fabricación de piezas de cerámica.","lon":-8.72197733452707,"title":"Marta Armada Rodríguez","type":27,"layer":"compras","phone":null,"web":null,"subcategoria":"Ceramista","idpoi":9048,"mp3_uri":null,"lang":"es-ES","lat":42.2230811165324}},{"geometry":{"coordinates":[-8.7055877531787,42.2422476287638],"type":"Point"},"type":"Feature","properties":{"address":"Av. García Barbón, 114 - 7ª A","image_uri":"http://www.turismodevigo.org/sites/turismodevigo/files/com001.jpg","postcode":"36207","description":"Artesano que trabaja con metales preciosos, principalmente oro y plata.","lon":-8.7055877531787,"title":"Adrián Ado Goddio","type":27,"layer":"compras","phone":"666082939","web":null,"subcategoria":"Orfebre","idpoi":9031,"mp3_uri":null,"lang":"es-ES","lat":42.2422476287638}}],"type":"FeatureCollection"}