{"features":[{"geometry":{"coordinates":[-8.70426032657133,42.2312228191032],"type":"Point"},"type":"Feature","properties":{"address":"Calle Urzaiz, s/n","image_uri":"http://www.turismodevigo.org/sites/turismodevigo/files/com054.jpg","postcode":"36205","description":"Mercado de abastos local. Venta de productos de alimentación frescos y congelados.","lon":-8.70426032657133,"title":"Mercado del Calvario","type":28,"layer":"compras","phone":"635410497","web":null,"subcategoria":"Mercado local","idpoi":9084,"mp3_uri":null,"lang":"es-ES","lat":42.2312228191032}},{"geometry":{"coordinates":[-8.73555275501613,42.2182073739713],"type":"Point"},"type":"Feature","properties":{"address":"Luis Seoane, s/n","image_uri":"http://www.turismodevigo.org/sites/turismodevigo/files/com055.jpg","postcode":"36210","description":"Mercado de abastos local. Venta de productos de alimentación frescos y congelados.","lon":-8.73555275501613,"title":"Mercado de As Travesas","type":28,"layer":"compras","phone":"986298145","web":null,"subcategoria":"Mercado local","idpoi":9085,"mp3_uri":null,"lang":"es-ES","lat":42.2182073739713}},{"geometry":{"coordinates":[-8.70037652287484,42.2474211557777],"type":"Point"},"type":"Feature","properties":{"address":"Purificación Saavedra, s/n","image_uri":"http://www.turismodevigo.org/sites/turismodevigo/files/com056.jpg","postcode":"36207","description":"Mercado de abastos local. Venta de productos de alimentación frescos y congelados.","lon":-8.70037652287484,"title":"Mercado de Teis","type":28,"layer":"compras","phone":"986371515","web":null,"subcategoria":"Mercado local","idpoi":9086,"mp3_uri":null,"lang":"es-ES","lat":42.2474211557777}},{"geometry":{"coordinates":[-8.72265295998575,42.2355867639564],"type":"Point"},"type":"Feature","properties":{"address":"Calle Progreso, s/n","image_uri":"http://www.turismodevigo.org/sites/turismodevigo/files/com057.jpg","postcode":"36202","description":"Mercado de abastos local. Venta de productos de alimentación frescos y congelados.","lon":-8.72265295998575,"title":"Mercado de O Progreso","type":28,"layer":"compras","phone":"986113950","web":"www.mercadoprogresovigo.com/","subcategoria":"Mercado local","idpoi":9087,"mp3_uri":null,"lang":"es-ES","lat":42.2355867639564}},{"geometry":{"coordinates":[-8.72875047786678,42.2388176489772],"type":"Point"},"type":"Feature","properties":{"address":"Cánovas del Castillo, s/n","image_uri":"http://www.turismodevigo.org/sites/turismodevigo/files/com058.jpg","postcode":"36202","description":"Mercado de abastos local. Venta de productos de alimentación frescos y congelados.","lon":-8.72875047786678,"title":"Mercado de O Berbés","type":28,"layer":"compras","phone":"986228584","web":null,"subcategoria":"Mercado local","idpoi":9088,"mp3_uri":null,"lang":"es-ES","lat":42.2388176489772}},{"geometry":{"coordinates":[-8.67022716290174,42.2229890037697],"type":"Point"},"type":"Feature","properties":{"address":"Avenida del Tranvía, 2","image_uri":"http://www.turismodevigo.org/sites/turismodevigo/files/com059.jpg","postcode":"36215","description":"Mercado de abastos local. Venta de productos de alimentación frescos y congelados.","lon":-8.67022716290174,"title":"Mercado de Cabral","type":28,"layer":"compras","phone":"986262362","web":null,"subcategoria":"Mercado local","idpoi":9089,"mp3_uri":null,"lang":"es-ES","lat":42.2229890037697}},{"geometry":{"coordinates":[-8.72680852297448,42.239659213545],"type":"Point"},"type":"Feature","properties":{"address":"Calle Teófilo Llorente","image_uri":"http://www.turismodevigo.org/sites/turismodevigo/files/com060.jpg","postcode":"36202","description":"Venta de prendas de ropa y aparatos electrónicos. En los alrederores es típico disfrutar de una ración de ostras.","lon":-8.72680852297448,"title":"Mercado de A Pedra","type":28,"layer":"compras","phone":null,"web":null,"subcategoria":"Mercado local","idpoi":9090,"mp3_uri":null,"lang":"es-ES","lat":42.239659213545}},{"geometry":{"coordinates":[-8.7522459220335,42.2250479722501],"type":"Point"},"type":"Feature","properties":{"address":"Calle Covadonga, 1","image_uri":"http://www.turismodevigo.org/sites/turismodevigo/files/com061.jpg","postcode":"36208","description":"Mercado de abastos local. Venta de productos de alimentación frescos y congelados.","lon":-8.7522459220335,"title":"Mercado de Bouzas","type":28,"layer":"compras","phone":"886126154","web":null,"subcategoria":"Mercado local","idpoi":9091,"mp3_uri":null,"lang":"es-ES","lat":42.2250479722501}}],"type":"FeatureCollection"}