{"features":[{"geometry":{"coordinates":[-8.70914088908953,42.2258448890199],"type":"Point"},"type":"Feature","properties":{"tipo":"Cocina española","address":"Gregorio Espino, 58","image_uri":"http://www.turismodevigo.org/sites/turismodevigo/files/res229.jpg","postcode":"36205","description":"Tiene capacidad para 54 comensales.","lon":-8.70914088908953,"title":"Callao","type":57,"layer":"restaurantes","phone":"986279034","web":null,"subcategoria":"Restaurante de 1 Tenedor","idpoi":8938,"mp3_uri":null,"lang":"es-ES","lat":42.2258448890199}},{"geometry":{"coordinates":[-8.70195825636094,42.2282376497474],"type":"Point"},"type":"Feature","properties":{"tipo":"Cocina española","address":"Sagunto, 57","image_uri":"http://www.turismodevigo.org/sites/turismodevigo/files/res230.jpg","postcode":"36205","description":"Tiene capacidad para 40 comensales.","lon":-8.70195825636094,"title":"Ree","type":57,"layer":"restaurantes","phone":"986275265","web":null,"subcategoria":"Restaurante de 1 Tenedor","idpoi":8939,"mp3_uri":null,"lang":"es-ES","lat":42.2282376497474}},{"geometry":{"coordinates":[-8.71718847705442,42.2350628895954],"type":"Point"},"type":"Feature","properties":{"tipo":"Cocina española","address":"Cervantes, 23","image_uri":"http://www.turismodevigo.org/sites/turismodevigo/files/res013.jpg","postcode":"36201","description":"Tiene capacidad para 47 comensales.","lon":-8.71718847705442,"title":"Acuario","type":57,"layer":"restaurantes","phone":"986223015","web":null,"subcategoria":"Restaurante de 1 Tenedor","idpoi":8767,"mp3_uri":null,"lang":"es-ES","lat":42.2350628895954}},{"geometry":{"coordinates":[-8.7360687811503,42.2177444922526],"type":"Point"},"type":"Feature","properties":{"tipo":"Cocina española","address":"Alberto Baltar, 3","image_uri":"http://www.turismodevigo.org/sites/turismodevigo/files/res016.jpg","postcode":"36210","description":"Tiene capacidad para 48 comensales.","lon":-8.7360687811503,"title":"Angel","type":57,"layer":"restaurantes","phone":"986298313","web":null,"subcategoria":"Restaurante de 1 Tenedor","idpoi":8768,"mp3_uri":null,"lang":"es-ES","lat":42.2177444922526}},{"geometry":{"coordinates":[-8.72133793279272,42.2404602237287],"type":"Point"},"type":"Feature","properties":{"tipo":"Cocina española","address":"Montero Ríos, 36","image_uri":null,"postcode":"36201","description":"Acogedor restaurante donde se puede degustar los pratos más típicos de la comida gallega.","lon":-8.72133793279272,"title":"Restaurante Marítimo","type":57,"layer":"restaurantes","phone":"986431979","web":null,"subcategoria":"Restaurante de 1 Tenedor","idpoi":8769,"mp3_uri":null,"lang":"es-ES","lat":42.2404602237287}},{"geometry":{"coordinates":[-8.725625,42.239907],"type":"Point"},"type":"Feature","properties":{"tipo":"Cocina española","address":"Plaza da Pedra","image_uri":"http://www.turismodevigo.org/sites/turismodevigo/files/res286.jpg","postcode":"36202","description":"Tiene capacidad para 36 comensales.","lon":-8.725625,"title":"Bahía","type":57,"layer":"restaurantes","phone":"986449655","web":null,"subcategoria":"Restaurante de 2 Tenedores","idpoi":8983,"mp3_uri":null,"lang":"es-ES","lat":42.239907}},{"geometry":{"coordinates":[-8.72438907623291,42.24027332766675],"type":"Point"},"type":"Feature","properties":{"tipo":"Cocina internacional","address":"García Olloqui, 7","image_uri":null,"postcode":"36202","description":null,"lon":-8.72438907623291,"title":"Belalola","type":61,"layer":"restaurantes","phone":null,"web":null,"subcategoria":"Restaurante italiano","idpoi":10282,"mp3_uri":null,"lang":"es-ES","lat":42.24027332766675}},{"geometry":{"coordinates":[-8.719024658203125,42.23391930556614],"type":"Point"},"type":"Feature","properties":{"tipo":"Tapas","address":"Joaquín Yáñez, 5 - Bajo","image_uri":"http://www.turismodevigo.org/sites/turismodevigo/files/lume-de-carozo_img233458t0.jpg","postcode":"36202","description":"El restaurante fusiona la comida tradicional gallega con la cocina más creativa con el objetivo de sorprender a sus clientes con los más deliciosos platos. Dispone de gran variedad de menús.","lon":-8.719024658203125,"title":"Lume de Carozo","type":13,"layer":"restaurantes","phone":"986228346","web":"http://www.lumedecarozo.com/","subcategoria":"Restaurante 1 Tenedor","idpoi":10262,"mp3_uri":null,"lang":"es-ES","lat":42.23391930556614}},{"geometry":{"coordinates":[-8.719024658203125,42.23391930556614],"type":"Point"},"type":"Feature","properties":{"tipo":"Tapas","address":"Joaquín Yáñez, 8 - Bajo","image_uri":"http://www.turismodevigo.org/sites/turismodevigo/files/res290.jpg","postcode":"36202","description":"Nueva tapería en el casco viejo de Vigo. Productos frescos en un ambiente renovado e innovador.","lon":-8.719024658203125,"title":"Vaiche Boa","type":13,"layer":"restaurantes","phone":"661288201","web":null,"subcategoria":"Restaurante 1 Tenedor","idpoi":10261,"mp3_uri":null,"lang":"es-ES","lat":42.23391930556614}},{"geometry":{"coordinates":[-8.715305899999976,42.2309422],"type":"Point"},"type":"Feature","properties":{"tipo":"Tapas","address":"Calle Vázquez Varela, 50.","image_uri":"http://www.turismodevigo.org/sites/turismodevigo/files/lacomedia.jpg","postcode":"36205","description":"Desayunos, Menú del día. Tapas varias típicas, cocina casera. Capacidad aprox. salón principal 60 personas. Salón privado, aprox. 50 personas. (por reserva).","lon":-8.715305899999976,"title":"La Comedia","type":13,"layer":"restaurantes","phone":"886 118 466","web":"http://www.lacomediavigo.es","subcategoria":"Restaurante de 1 Tenedor","idpoi":10249,"mp3_uri":null,"lang":"es-ES","lat":42.2309422}},{"geometry":{"coordinates":[-8.726416599999993,42.2384693],"type":"Point"},"type":"Feature","properties":{"tipo":"Tapas","address":"Sombrereiros, 2","image_uri":"http://www.turismodevigo.org/sites/turismodevigo/files/res291.jpg","postcode":"36202","description":"Excelentes tapas al más puro estilo vasco en pleno casco viejo de Vigo.","lon":-8.726416599999993,"title":"La Pintxoteca","type":13,"layer":"restaurantes","phone":null,"web":null,"subcategoria":"Restaurante 1 Tenedor","idpoi":10250,"mp3_uri":null,"lang":"es-ES","lat":42.2384693}},{"geometry":{"coordinates":[-8.724824200000057,42.2398859],"type":"Point"},"type":"Feature","properties":{"tipo":"Cocina internacional","address":"Rúa Carral, 30 bajo","image_uri":"http://www.turismodevigo.org/sites/turismodevigo/files/res500.jpg","postcode":"36202","description":null,"lon":-8.724824200000057,"title":"La Fiorella","type":61,"layer":"restaurantes","phone":null,"web":null,"subcategoria":"Cocina italiana","idpoi":10248,"mp3_uri":null,"lang":"es-ES","lat":42.2398859}},{"geometry":{"coordinates":[-8.6775287359834,42.2641786623714],"type":"Point"},"type":"Feature","properties":{"tipo":"Cocina gallega","address":"Praia Arealonga","image_uri":"http://www.turismodevigo.org/sites/turismodevigo/files/res271.jpg","postcode":"36216","description":"Especialidad en comida típica gallega.","lon":-8.6775287359834,"title":"A Chabola","type":7,"layer":"restaurantes","phone":"986453148","web":null,"subcategoria":"Restaurante de 1 Tenedor","idpoi":8971,"mp3_uri":null,"lang":"es-ES","lat":42.2641786623714}},{"geometry":{"coordinates":[-8.78945435824598,42.1964437470107],"type":"Point"},"type":"Feature","properties":{"tipo":"Cocina española","address":"Fontenla, 37","image_uri":"http://www.turismodevigo.org/sites/turismodevigo/files/res268.jpg","postcode":"36331","description":"Tiene capacidad para 65 comensales.","lon":-8.78945435824598,"title":"Barbantes","type":57,"layer":"restaurantes","phone":"986492061","web":null,"subcategoria":"Restaurante de 1 Tenedor","idpoi":8970,"mp3_uri":null,"lang":"es-ES","lat":42.1964437470107}},{"geometry":{"coordinates":[-8.71612116027805,42.2333496581577],"type":"Point"},"type":"Feature","properties":{"tipo":"Cocina española","address":"Cuba, 3","image_uri":"http://www.turismodevigo.org/sites/turismodevigo/files/res266.jpg","postcode":"36204","description":"Tiene capacidad para 14 comensales. Permanece cerrado los domingos.","lon":-8.71612116027805,"title":"Barbantes","type":57,"layer":"restaurantes","phone":"986416024","web":null,"subcategoria":"Restaurante de 1 Tenedor","idpoi":8969,"mp3_uri":null,"lang":"es-ES","lat":42.2333496581577}},{"geometry":{"coordinates":[-8.71544302878924,42.2352356074978],"type":"Point"},"type":"Feature","properties":{"tipo":"Cocina española","address":"Alfonso XIII, 9-11","image_uri":"http://www.turismodevigo.org/sites/turismodevigo/files/res265.jpg","postcode":"36201","description":"Tiene capacidad para 64 comensales.","lon":-8.71544302878924,"title":"Ensenada","type":57,"layer":"restaurantes","phone":"986449714","web":null,"subcategoria":"Restaurante de 3 Tenedores","idpoi":8968,"mp3_uri":null,"lang":"es-ES","lat":42.2352356074978}},{"geometry":{"coordinates":[-8.7160497632248,42.2345449122043],"type":"Point"},"type":"Feature","properties":{"tipo":"Cocina española","address":"Lepanto, 8","image_uri":"http://www.turismodevigo.org/sites/turismodevigo/files/res264.jpg","postcode":"36201","description":"Tiene capacidad para 52 comensales.","lon":-8.7160497632248,"title":"Argentino","type":57,"layer":"restaurantes","phone":"986222026","web":"www.hotelargentino.es","subcategoria":"Restaurante de 2 Tenedores","idpoi":8967,"mp3_uri":null,"lang":"es-ES","lat":42.2345449122043}},{"geometry":{"coordinates":[-8.72285930967866,42.2390559787886],"type":"Point"},"type":"Feature","properties":{"tipo":"Cocina española","address":"Plaza de Compostela, 6","image_uri":"http://www.turismodevigo.org/sites/turismodevigo/files/res263.jpg","postcode":"36201","description":"Tiene capacidad para 56 comensales.","lon":-8.72285930967866,"title":"Compostela","type":57,"layer":"restaurantes","phone":"986432896","web":"www.mesoncompostela.com","subcategoria":"Restaurante de 2 Tenedores","idpoi":8966,"mp3_uri":null,"lang":"es-ES","lat":42.2390559787886}},{"geometry":{"coordinates":[-8.71515322778057,42.2336046889013],"type":"Point"},"type":"Feature","properties":{"tipo":"Cocina española","address":"México, 8","image_uri":"http://www.turismodevigo.org/sites/turismodevigo/files/res262.jpg","postcode":"36204","description":"Tiene capacidad para 72 comensales.","lon":-8.71515322778057,"title":"Zona Cero","type":57,"layer":"restaurantes","phone":"986482504","web":null,"subcategoria":"Restaurante de 1 Tenedor","idpoi":8965,"mp3_uri":null,"lang":"es-ES","lat":42.2336046889013}},{"geometry":{"coordinates":[-8.75530522821184,42.210027015766],"type":"Point"},"type":"Feature","properties":{"tipo":"Cocina española","address":"Teixugueiras nº 19, local 25 D","image_uri":"http://www.turismodevigo.org/sites/turismodevigo/files/res260.jpg","postcode":"36057","description":"Tiene capacidad para 47 comensales.","lon":-8.75530522821184,"title":"Washington","type":57,"layer":"restaurantes","phone":"886128772","web":null,"subcategoria":"Restaurante de 1 Tenedor","idpoi":8963,"mp3_uri":null,"lang":"es-ES","lat":42.210027015766}},{"geometry":{"coordinates":[-8.67220018606879,42.2099980427295],"type":"Point"},"type":"Feature","properties":{"tipo":"Cocina española","address":"Avda da Ponte","image_uri":"http://www.turismodevigo.org/sites/turismodevigo/files/res259.jpg","postcode":"36213","description":"Tiene capacidad para 54 comensales.","lon":-8.67220018606879,"title":"Vigomemorial-Hostelería","type":57,"layer":"restaurantes","phone":"986265280","web":null,"subcategoria":"Restaurante de 1 Tenedor","idpoi":8962,"mp3_uri":null,"lang":"es-ES","lat":42.2099980427295}},{"geometry":{"coordinates":[-8.77674802926676,42.2055551020531],"type":"Point"},"type":"Feature","properties":{"tipo":"Cocina española","address":"Praia de Samil, 175","image_uri":null,"postcode":"36212","description":"Tiene capacidad para 28 comensales.","lon":-8.77674802926676,"title":"Verdemar","type":57,"layer":"restaurantes","phone":"986240814","web":"www.hotelverdemar.es","subcategoria":"Restaurante de 1 Tenedor","idpoi":8961,"mp3_uri":null,"lang":"es-ES","lat":42.2055551020531}},{"geometry":{"coordinates":[-8.69770839596659,42.1952491508451],"type":"Point"},"type":"Feature","properties":{"tipo":"Cocina española","address":"As Coutadas, s/n","image_uri":"http://www.turismodevigo.org/sites/turismodevigo/files/res257.jpg","postcode":"36207","description":"Tiene capacidad para 32 comensales.","lon":-8.69770839596659,"title":"El Ventanal","type":57,"layer":"restaurantes","phone":"986413819","web":null,"subcategoria":"Restaurante de 1 Tenedor","idpoi":8960,"mp3_uri":null,"lang":"es-ES","lat":42.1952491508451}},{"geometry":{"coordinates":[-8.70744821013231,42.2328140676195],"type":"Point"},"type":"Feature","properties":{"tipo":"Cocina española","address":"Travesía de Vigo, 23","image_uri":"http://www.turismodevigo.org/sites/turismodevigo/files/res256.jpg","postcode":"36206","description":"Tiene capacidad para 48 comensales.","lon":-8.70744821013231,"title":"Valle Regadas","type":57,"layer":"restaurantes","phone":"649459173","web":null,"subcategoria":"Restaurante de 1 Tenedor","idpoi":8959,"mp3_uri":null,"lang":"es-ES","lat":42.2328140676195}},{"geometry":{"coordinates":[-8.71596471966545,42.2324490867894],"type":"Point"},"type":"Feature","properties":{"tipo":"Tapas","address":"México, 36","image_uri":"http://www.turismodevigo.org/sites/turismodevigo/files/res273.jpg","postcode":"36204","description":"Tiene capacidad para 50 comensales.","lon":-8.71596471966545,"title":"Tapas Areal","type":13,"layer":"restaurantes","phone":"986418643","web":null,"subcategoria":"Restaurante de 1 Tenedor","idpoi":8972,"mp3_uri":null,"lang":"es-ES","lat":42.2324490867894}},{"geometry":{"coordinates":[-8.72157866101649,42.2391282265856],"type":"Point"},"type":"Feature","properties":{"tipo":"Tapas","address":"Praza de Compostela, 13","image_uri":"http://www.turismodevigo.org/sites/turismodevigo/files/res274.jpg","postcode":"36201","description":"Tiene capacidad para 80 comensales.","lon":-8.72157866101649,"title":"María Manuela","type":13,"layer":"restaurantes","phone":"886143162","web":null,"subcategoria":"Restaurante de 2 Tenedores","idpoi":8973,"mp3_uri":null,"lang":"es-ES","lat":42.2391282265856}},{"geometry":{"coordinates":[-8.71713634120944,42.2364777871945],"type":"Point"},"type":"Feature","properties":{"tipo":"Cocina española","address":"Alfonso XIII, 12","image_uri":"http://www.turismodevigo.org/sites/turismodevigo/files/res261.jpg","postcode":"36201","description":"Tiene capacidad para 26 comensales.","lon":-8.71713634120944,"title":"El Beso Vigo","type":57,"layer":"restaurantes","phone":"986422246","web":null,"subcategoria":"Restaurante de 1 Tenedor","idpoi":8964,"mp3_uri":null,"lang":"es-ES","lat":42.2364777871945}},{"geometry":{"coordinates":[-8.725724,42.239921],"type":"Point"},"type":"Feature","properties":{"tipo":"Cocina española","address":"Pescadería","image_uri":"http://www.turismodevigo.org/sites/turismodevigo/files/res288.jpg","postcode":"36202","description":"Tiene capacidad para 36 comensales.","lon":-8.725724,"title":"O Pantón","type":57,"layer":"restaurantes","phone":null,"web":null,"subcategoria":"Restaurante de 2 Tenedores","idpoi":8985,"mp3_uri":null,"lang":"es-ES","lat":42.239921}},{"geometry":{"coordinates":[-8.725717,42.239904],"type":"Point"},"type":"Feature","properties":{"tipo":"Cocina española","address":"Pescadería, 1","image_uri":"http://www.turismodevigo.org/sites/turismodevigo/files/res287.jpg","postcode":"36202","description":"Tiene capacidad para 36 comensales.","lon":-8.725717,"title":"Casavella","type":57,"layer":"restaurantes","phone":"986227224","web":null,"subcategoria":"Restaurante de 2 Tenedores","idpoi":8984,"mp3_uri":null,"lang":"es-ES","lat":42.239904}},{"geometry":{"coordinates":[-8.71793126493758,42.2372853730822],"type":"Point"},"type":"Feature","properties":{"tipo":"Otros","address":"Avda. de García Barbón, 25","image_uri":"http://www.turismodevigo.org/sites/turismodevigo/files/res285.jpg","postcode":"36201","description":"Tiene capacidad para 126 comensales.","lon":-8.71793126493758,"title":"Pizzerías Cambalache","type":10,"layer":"restaurantes","phone":"986447171","web":"http://www.pizzeriascambalache.es/spa/default.php","subcategoria":"Restaurante de 2 Tenedores","idpoi":8982,"mp3_uri":null,"lang":"es-ES","lat":42.2372853730822}},{"geometry":{"coordinates":[-8.71355573718345,42.2324190980785],"type":"Point"},"type":"Feature","properties":{"tipo":"Otros","address":"Brasil, 46","image_uri":"http://www.turismodevigo.org/sites/turismodevigo/files/res283.jpg","postcode":"36204","description":"Tiene capacidad para 80 comensales.","lon":-8.71355573718345,"title":"Restaurante Bolboreta","type":10,"layer":"restaurantes","phone":"986471415","web":null,"subcategoria":"Restaurante de 1 Tenedor","idpoi":8981,"mp3_uri":null,"lang":"es-ES","lat":42.2324190980785}},{"geometry":{"coordinates":[-8.70929569665674,42.2314670700447],"type":"Point"},"type":"Feature","properties":{"tipo":"Otros","address":"Pizarro, 60","image_uri":"http://www.turismodevigo.org/sites/turismodevigo/files/res282.jpg","postcode":"36204","description":"Tiene capacidad para 73 comensales.","lon":-8.70929569665674,"title":"Domino´s Pizza","type":10,"layer":"restaurantes","phone":"986480210","web":"www.dominospizza.es","subcategoria":"Restaurante de 1 Tenedor","idpoi":8980,"mp3_uri":null,"lang":"es-ES","lat":42.2314670700447}},{"geometry":{"coordinates":[-8.71291330742086,42.2380595222033],"type":"Point"},"type":"Feature","properties":{"tipo":"Tapas","address":"Rosalía de Castro, 59","image_uri":"http://www.turismodevigo.org/sites/turismodevigo/files/res276.jpg","postcode":"36201","description":"Tiene capacidad para 58 comensales.","lon":-8.71291330742086,"title":"Tapería Restaurante El Cortijo","type":13,"layer":"restaurantes","phone":"986229372","web":null,"subcategoria":"Restaurante de 1 Tenedor","idpoi":8975,"mp3_uri":null,"lang":"es-ES","lat":42.2380595222033}},{"geometry":{"coordinates":[-8.73018765916169,42.2233846742765],"type":"Point"},"type":"Feature","properties":{"tipo":"Otros","address":"Pza. de la Independencia, 5","image_uri":"http://www.turismodevigo.org/sites/turismodevigo/files/res281.jpg","postcode":"36211","description":"Tiene capacidad para 25 comensales.","lon":-8.73018765916169,"title":"Domino´s Pizza","type":10,"layer":"restaurantes","phone":"986232376","web":"www.dominospizza.es","subcategoria":"Restaurante de 1 Tenedor","idpoi":8979,"mp3_uri":null,"lang":"es-ES","lat":42.2233846742765}},{"geometry":{"coordinates":[-8.68447447631656,42.2183593223547],"type":"Point"},"type":"Feature","properties":{"tipo":"Otros","address":"C.C. Meixueiro, Autovía Rías Baixas saída 664","image_uri":"http://www.turismodevigo.org/sites/turismodevigo/files/res279.jpg","postcode":"36214","description":"Especialidad en comida rápida","lon":-8.68447447631656,"title":"McDonald´s","type":10,"layer":"restaurantes","phone":"986422656","web":"www.mcdonalds.es","subcategoria":"Restaurante de 1 Tenedor","idpoi":8977,"mp3_uri":null,"lang":"es-ES","lat":42.2183593223547}},{"geometry":{"coordinates":[-8.72775928848587,42.2406201943618],"type":"Point"},"type":"Feature","properties":{"tipo":"Otros","address":"C. C. A Laxe - Cánovas del Castillo, 1","image_uri":"http://www.turismodevigo.org/sites/turismodevigo/files/res277.jpg","postcode":"36208","description":"Tiene capacidad para 72 comensales.","lon":-8.72775928848587,"title":"Burguer King","type":10,"layer":"restaurantes","phone":"986122155","web":"www.burgerking.es","subcategoria":"Restaurante de 1 Tenedor","idpoi":8976,"mp3_uri":null,"lang":"es-ES","lat":42.2406201943618}},{"geometry":{"coordinates":[-8.77375799464361,42.2108998180438],"type":"Point"},"type":"Feature","properties":{"tipo":"Asador","address":"Avda. Europa 103","image_uri":"http://www.turismodevigo.org/sites/turismodevigo/files/res275.jpg","postcode":"36212","description":"Tiene capacidad para 42 comensales. Permanece cerrado los lunes.","lon":-8.77375799464361,"title":"Asador Arévalo","type":58,"layer":"restaurantes","phone":"986248360","web":"http://www.asadorarevalo.es/","subcategoria":"Restaurante de 1 Tenedor","idpoi":8974,"mp3_uri":null,"lang":"es-ES","lat":42.2108998180438}},{"geometry":{"coordinates":[-8.75732432176236,42.2093177992234],"type":"Point"},"type":"Feature","properties":{"tipo":"Cocina española","address":"Teixugueiras 28, bajo","image_uri":"http://www.turismodevigo.org/sites/turismodevigo/files/res209.jpg","postcode":"36212","description":"Tiene capacidad para 33 comensales.","lon":-8.75732432176236,"title":"Papo's Navia","type":57,"layer":"restaurantes","phone":"986112762","web":"www.papos.es","subcategoria":"Restaurante de 1 Tenedor","idpoi":8924,"mp3_uri":null,"lang":"es-ES","lat":42.2093177992234}},{"geometry":{"coordinates":[-8.7169292077852,42.2350674574815],"type":"Point"},"type":"Feature","properties":{"tipo":"Cocina española","address":"Martin Codax, 20","image_uri":null,"postcode":"36201","description":"Tiene capacidad para 40 comensales.","lon":-8.7169292077852,"title":"Palo-Palo","type":57,"layer":"restaurantes","phone":"986439657","web":null,"subcategoria":"Restaurante de 1 Tenedor","idpoi":8923,"mp3_uri":null,"lang":"es-ES","lat":42.2350674574815}},{"geometry":{"coordinates":[-8.7008680277217,42.2466884954985],"type":"Point"},"type":"Feature","properties":{"tipo":"Cocina gallega","address":"Sanjurjo Badía, 101","image_uri":"http://www.turismodevigo.org/sites/turismodevigo/files/res207.jpg","postcode":"36207","description":"Especialidad en comida gallega","lon":-8.7008680277217,"title":"Padrón","type":7,"layer":"restaurantes","phone":"986376003","web":null,"subcategoria":"Restaurante de 1 Tenedor","idpoi":8922,"mp3_uri":null,"lang":"es-ES","lat":42.2466884954985}},{"geometry":{"coordinates":[-8.72093970015939,42.23961372174],"type":"Point"},"type":"Feature","properties":{"tipo":"Cocina española","address":"Plaza de Compostela, 19","image_uri":"http://www.turismodevigo.org/sites/turismodevigo/files/res221.jpg","postcode":"36201","description":"Tiene capacidad para 79 comensales.","lon":-8.72093970015939,"title":"Don Sancho","type":57,"layer":"restaurantes","phone":"886142373","web":"www.donsanchovigo.com","subcategoria":"Restaurante de 2 Tenedores","idpoi":8932,"mp3_uri":null,"lang":"es-ES","lat":42.23961372174}},{"geometry":{"coordinates":[-8.7142582640945,42.2375686428699],"type":"Point"},"type":"Feature","properties":{"tipo":"Cocina española","address":"Canceleiro, 9","image_uri":"http://www.turismodevigo.org/sites/turismodevigo/files/res213.jpg","postcode":"36201","description":"Tiene capacidad para 45 comensales. Permanece cerrado los lunes.","lon":-8.7142582640945,"title":"Sal Negra","type":57,"layer":"restaurantes","phone":"986228864","web":null,"subcategoria":"Restaurante de 1 Tenedor","idpoi":8925,"mp3_uri":null,"lang":"es-ES","lat":42.2375686428699}},{"geometry":{"coordinates":[-8.78791943903351,42.1951418711814],"type":"Point"},"type":"Feature","properties":{"tipo":"Cocina española","address":"Carretera O Bao, 130","image_uri":"http://www.turismodevigo.org/sites/turismodevigo/files/res214.jpg","postcode":"36208","description":"Tiene capacidad para 24 comensales. Permanece cerrado los lunes.","lon":-8.78791943903351,"title":"Pedra Moura","type":57,"layer":"restaurantes","phone":"986460543","web":null,"subcategoria":"Restaurante de 2 Tenedores","idpoi":8926,"mp3_uri":null,"lang":"es-ES","lat":42.1951418711814}},{"geometry":{"coordinates":[-8.71545070020793,42.2331830547943],"type":"Point"},"type":"Feature","properties":{"tipo":"Cocina española","address":"Brasil, 20","image_uri":"http://www.turismodevigo.org/sites/turismodevigo/files/res215.jpg","postcode":"36204","description":"Tiene capacidad para 12 comensales.","lon":-8.71545070020793,"title":"Pedrenda","type":57,"layer":"restaurantes","phone":"986410614","web":null,"subcategoria":"Restaurante de 1 Tenedor","idpoi":8927,"mp3_uri":null,"lang":"es-ES","lat":42.2331830547943}},{"geometry":{"coordinates":[-8.72298209440396,42.2340817269696],"type":"Point"},"type":"Feature","properties":{"tipo":"Cocina española","address":"Venezuela, 13","image_uri":"http://www.turismodevigo.org/sites/turismodevigo/files/res216.jpg","postcode":"36203","description":"Tiene capacidad para 70 comensales.","lon":-8.72298209440396,"title":"Pekin","type":57,"layer":"restaurantes","phone":"986471999","web":null,"subcategoria":"Restaurante de 2 Tenedores","idpoi":8928,"mp3_uri":null,"lang":"es-ES","lat":42.2340817269696}},{"geometry":{"coordinates":[-8.73939709837612,42.2236702038043],"type":"Point"},"type":"Feature","properties":{"tipo":"Cocina española","address":"Tomás Alonso, 117 baixo","image_uri":"http://www.turismodevigo.org/sites/turismodevigo/files/res217.jpg","postcode":"33790","description":"Tiene capacidad para 40 comensales.","lon":-8.73939709837612,"title":"Victoria","type":57,"layer":"restaurantes","phone":"986297039","web":"www.pecos-bill.com/servicios.htm","subcategoria":"Restaurante de 1 Tenedor","idpoi":8929,"mp3_uri":null,"lang":"es-ES","lat":42.2236702038043}},{"geometry":{"coordinates":[-8.72353228487648,42.2402096843868],"type":"Point"},"type":"Feature","properties":{"tipo":"Cocina española","address":"Castelar, 9","image_uri":"http://www.turismodevigo.org/sites/turismodevigo/files/res219.jpg","postcode":"36201","description":"Tiene capacidad para 35 comensales. Permanece cerrado los domingos.","lon":-8.72353228487648,"title":"Pigmalión","type":57,"layer":"restaurantes","phone":"986228270","web":null,"subcategoria":"Restaurante de 1 Tenedor","idpoi":8930,"mp3_uri":null,"lang":"es-ES","lat":42.2402096843868}},{"geometry":{"coordinates":[-8.73363291816645,42.2288530167318],"type":"Point"},"type":"Feature","properties":{"tipo":"Cocina española","address":"Severo Ochoa, 2","image_uri":"http://www.turismodevigo.org/sites/turismodevigo/files/res220.jpg","postcode":"36202","description":"Tiene capacidad para 44 comensales. Permanece cerrado los domingos.","lon":-8.73363291816645,"title":"Pomodoro","type":57,"layer":"restaurantes","phone":"986210648","web":null,"subcategoria":"Restaurante de 1 Tenedor","idpoi":8931,"mp3_uri":null,"lang":"es-ES","lat":42.2288530167318}},{"geometry":{"coordinates":[-8.71606657096589,42.2327421217487],"type":"Point"},"type":"Feature","properties":{"tipo":"Cocina española","address":"Paraguae, 10","image_uri":"http://www.turismodevigo.org/sites/turismodevigo/files/res206.jpg","postcode":"36204","description":"Tiene capacidad para 44 comensales. Permanece cerrado los lunes.","lon":-8.71606657096589,"title":"Ottes-2","type":57,"layer":"restaurantes","phone":"986421037","web":null,"subcategoria":"Restaurante de 2 Tenedores","idpoi":8921,"mp3_uri":null,"lang":"es-ES","lat":42.2327421217487}},{"geometry":{"coordinates":[-8.70094941400906,42.2304864165678],"type":"Point"},"type":"Feature","properties":{"tipo":"Cocina española","address":"Jesús Fernández, 10","image_uri":"http://www.turismodevigo.org/sites/turismodevigo/files/res205.jpg","postcode":"36205","description":"Tiene capacidad para 65 comensales.","lon":-8.70094941400906,"title":"Os tres Pes","type":57,"layer":"restaurantes","phone":"986251729","web":null,"subcategoria":"Restaurante de 1 Tenedor","idpoi":8920,"mp3_uri":null,"lang":"es-ES","lat":42.2304864165678}},{"geometry":{"coordinates":[-8.70504198741872,42.225615657397],"type":"Point"},"type":"Feature","properties":{"tipo":"Cocina española","address":"Martínez Garrido, 98","image_uri":"http://www.turismodevigo.org/sites/turismodevigo/files/res192.jpg","postcode":"36205","description":"Tiene capacidad para 56 comensales.","lon":-8.70504198741872,"title":"O Mercado","type":57,"layer":"restaurantes","phone":"986261600","web":null,"subcategoria":"Restaurante de 1 Tenedor","idpoi":8909,"mp3_uri":null,"lang":"es-ES","lat":42.225615657397}},{"geometry":{"coordinates":[-8.67065862268323,42.2233496704531],"type":"Point"},"type":"Feature","properties":{"tipo":"Cocina española","address":"Tranvía, 5","image_uri":"http://www.turismodevigo.org/sites/turismodevigo/files/res194.jpg","postcode":"36215","description":"Tiene capacidad para 40 comensales. Permanece cerrado los domingos.","lon":-8.67065862268323,"title":"O Muiño","type":57,"layer":"restaurantes","phone":"986281684","web":null,"subcategoria":"Restaurante de 1 Tenedor","idpoi":8911,"mp3_uri":null,"lang":"es-ES","lat":42.2233496704531}},{"geometry":{"coordinates":[-8.73054036601342,42.2365306476474],"type":"Point"},"type":"Feature","properties":{"tipo":"Cocina española","address":"San Francisco, 57","image_uri":"http://www.turismodevigo.org/sites/turismodevigo/files/res195.jpg","postcode":"36202","description":"Tiene capacidad para 14 comensales.","lon":-8.73054036601342,"title":"O Novo Polar","type":57,"layer":"restaurantes","phone":"986437271","web":null,"subcategoria":"Restaurante de 1 Tenedor","idpoi":8912,"mp3_uri":null,"lang":"es-ES","lat":42.2365306476474}},{"geometry":{"coordinates":[-8.68422808979438,42.2133918017054],"type":"Point"},"type":"Feature","properties":{"tipo":"Cocina española","address":"Baixada O Castelo, 70","image_uri":"http://www.turismodevigo.org/sites/turismodevigo/files/res196.jpg","postcode":"36214","description":"Tiene capacidad para 50 comensales. Permanece cerrado los domingos.","lon":-8.68422808979438,"title":"O Rancheiro","type":57,"layer":"restaurantes","phone":"986423919","web":null,"subcategoria":"Restaurante de 1 Tenedor","idpoi":8913,"mp3_uri":null,"lang":"es-ES","lat":42.2133918017054}},{"geometry":{"coordinates":[-8.72073440038409,42.2349025719563],"type":"Point"},"type":"Feature","properties":{"tipo":"Cocina española","address":"Manuel Núñez, 10","image_uri":"http://www.turismodevigo.org/sites/turismodevigo/files/res198.jpg","postcode":"36203","description":"Tiene capacidad para 40 comensales. Permanece cerrado los domingos.","lon":-8.72073440038409,"title":"O Rincón","type":57,"layer":"restaurantes","phone":"986220265","web":null,"subcategoria":"Restaurante de 1 Tenedor","idpoi":8915,"mp3_uri":null,"lang":"es-ES","lat":42.2349025719563}},{"geometry":{"coordinates":[-8.69433544210997,42.2456871811128],"type":"Point"},"type":"Feature","properties":{"tipo":"Cocina española","address":"Travesía de Vigo, 233","image_uri":"http://www.turismodevigo.org/sites/turismodevigo/files/res199.jpg","postcode":"36207","description":"Tiene capacidad para 40 comensales. Permanece cerrado los lunes.","lon":-8.69433544210997,"title":"Tortiya!","type":57,"layer":"restaurantes","phone":"986252120","web":null,"subcategoria":"Restaurante de 1 Tenedor","idpoi":8916,"mp3_uri":null,"lang":"es-ES","lat":42.2456871811128}},{"geometry":{"coordinates":[-8.70153069311951,42.2232775430948],"type":"Point"},"type":"Feature","properties":{"tipo":"Cocina española","address":"Camiño Milladas, 5","image_uri":null,"postcode":"36205","description":"Tiene capacidad para 30 comensales.","lon":-8.70153069311951,"title":"O Salmón","type":57,"layer":"restaurantes","phone":"986264089","web":null,"subcategoria":"Restaurante de 1 Tenedor","idpoi":8917,"mp3_uri":null,"lang":"es-ES","lat":42.2232775430948}},{"geometry":{"coordinates":[-8.7211167385258,42.2279064692498],"type":"Point"},"type":"Feature","properties":{"tipo":"Cocina española","address":"Avda. Zamora, 7","image_uri":"http://www.turismodevigo.org/sites/turismodevigo/files/res203.jpg","postcode":"36203","description":"Tiene capacidad para 35 comensales. Permanece cerrado los miércoles.","lon":-8.7211167385258,"title":"Orensano","type":57,"layer":"restaurantes","phone":"986420757","web":null,"subcategoria":"Restaurante de 1 Tenedor","idpoi":8918,"mp3_uri":null,"lang":"es-ES","lat":42.2279064692498}},{"geometry":{"coordinates":[-8.72704285962149,42.2227739934252],"type":"Point"},"type":"Feature","properties":{"tipo":"Cocina española","address":"Avda. Zamora, 96","image_uri":"http://www.turismodevigo.org/sites/turismodevigo/files/res204.jpg","postcode":"36211","description":"Tiene capacidad para 45 comensales.","lon":-8.72704285962149,"title":"Os Pepes","type":57,"layer":"restaurantes","phone":"986420714","web":null,"subcategoria":"Restaurante de 1 Tenedor","idpoi":8919,"mp3_uri":null,"lang":"es-ES","lat":42.2227739934252}},{"geometry":{"coordinates":[-8.72474766779498,42.2353051765898],"type":"Point"},"type":"Feature","properties":{"tipo":"Cocina española","address":"Ronda de Don Bosco, 17","image_uri":"http://www.turismodevigo.org/sites/turismodevigo/files/res222.jpg","postcode":"36202","description":"Tiene capacidad para 18 comensales. Permanece cerrado los sábados e los domingos.","lon":-8.72474766779498,"title":"Primavera","type":57,"layer":"restaurantes","phone":"986223006","web":null,"subcategoria":"Restaurante de 1 Tenedor","idpoi":8933,"mp3_uri":null,"lang":"es-ES","lat":42.2353051765898}},{"geometry":{"coordinates":[-8.71870785811789,42.2392568288401],"type":"Point"},"type":"Feature","properties":{"tipo":"Asador","address":"Arenal, 18 - Local 2","image_uri":"http://www.turismodevigo.org/sites/turismodevigo/files/res223.jpg","postcode":"36201","description":"Tiene capacidad para 50 comensales.","lon":-8.71870785811789,"title":"Rancho Argentino","type":58,"layer":"restaurantes","phone":"986422982","web":null,"subcategoria":"Restaurante de 2 Tenedores","idpoi":8934,"mp3_uri":null,"lang":"es-ES","lat":42.2392568288401}},{"geometry":{"coordinates":[-8.72303780730945,42.2395321153647],"type":"Point"},"type":"Feature","properties":{"tipo":"Cocina española","address":"Plaza de Compostela, 27","image_uri":"http://www.turismodevigo.org/sites/turismodevigo/files/res242.jpg","postcode":"36201","description":"Tiene capacidad para 90 comensales.","lon":-8.72303780730945,"title":"Shangai","type":57,"layer":"restaurantes","phone":"986225888","web":null,"subcategoria":"Restaurante de 2 Tenedores","idpoi":8949,"mp3_uri":null,"lang":"es-ES","lat":42.2395321153647}},{"geometry":{"coordinates":[-8.72032107141195,42.2335671067619],"type":"Point"},"type":"Feature","properties":{"tipo":"Cocina española","address":"Ecuador, 38","image_uri":"http://www.turismodevigo.org/sites/turismodevigo/files/res243.jpg","postcode":"36336","description":"Tiene capacidad para 30 comensales.","lon":-8.72032107141195,"title":"Sidrería Estribo","type":57,"layer":"restaurantes","phone":"986418449","web":null,"subcategoria":"Restaurante de 1 Tenedor","idpoi":8950,"mp3_uri":null,"lang":"es-ES","lat":42.2335671067619}},{"geometry":{"coordinates":[-8.81031127027773,42.1895956040992],"type":"Point"},"type":"Feature","properties":{"tipo":"Cocina española","address":"Plaea de Sobreira","image_uri":"http://www.turismodevigo.org/sites/turismodevigo/files/res244.jpg","postcode":"36390","description":"Tiene capacidad para 60 comensales.","lon":-8.81031127027773,"title":"Sobreira","type":57,"layer":"restaurantes","phone":"986490856","web":null,"subcategoria":"Restaurante de 1 Tenedor","idpoi":8951,"mp3_uri":null,"lang":"es-ES","lat":42.1895956040992}},{"geometry":{"coordinates":[-8.72467307830853,42.2411429552962],"type":"Point"},"type":"Feature","properties":{"tipo":"Cocina española","address":"Las Avenidas, s/n-Club Náutico","image_uri":"http://www.turismodevigo.org/sites/turismodevigo/files/res246.jpg","postcode":"36202","description":"Tiene capacidad para 34 comensales.","lon":-8.72467307830853,"title":"Taberna del Puerto","type":57,"layer":"restaurantes","phone":"986220246","web":null,"subcategoria":"Restaurante de 1 Tenedor","idpoi":8952,"mp3_uri":null,"lang":"es-ES","lat":42.2411429552962}},{"geometry":{"coordinates":[-8.7148279115602,42.2370972351955],"type":"Point"},"type":"Feature","properties":{"tipo":"Cocina española","address":"García Barbón, 71","image_uri":"http://www.turismodevigo.org/sites/turismodevigo/files/res247.jpg","postcode":"36201","description":"Tiene capacidad para 50 comensales.","lon":-8.7148279115602,"title":"Taboada","type":57,"layer":"restaurantes","phone":"986222040","web":"www.restaurantetaboada.com","subcategoria":"Restaurante de 1 Tenedor","idpoi":8953,"mp3_uri":null,"lang":"es-ES","lat":42.2370972351955}},{"geometry":{"coordinates":[-8.72151390244939,42.2399147111922],"type":"Point"},"type":"Feature","properties":{"tipo":"Cocina española","address":"Luis Taboada, 26","image_uri":"http://www.turismodevigo.org/sites/turismodevigo/files/res248.jpg","postcode":"36201","description":"Tiene capacidad para 40 comensales.","lon":-8.72151390244939,"title":"Taboada 26","type":57,"layer":"restaurantes","phone":"986222168","web":null,"subcategoria":"Restaurante de 1 Tenedor","idpoi":8954,"mp3_uri":null,"lang":"es-ES","lat":42.2399147111922}},{"geometry":{"coordinates":[-8.72111131718478,42.2359553971449],"type":"Point"},"type":"Feature","properties":{"tipo":"Cocina española","address":"Príncipe, 54","image_uri":"http://www.turismodevigo.org/sites/turismodevigo/files/res250.jpg","postcode":"36202","description":"Tiene capacidad para 44 comensales.","lon":-8.72111131718478,"title":"Tempo Restaurante do Marco","type":57,"layer":"restaurantes","phone":"886116415","web":null,"subcategoria":"Restaurante de 1 Tenedor","idpoi":8955,"mp3_uri":null,"lang":"es-ES","lat":42.2359553971449}},{"geometry":{"coordinates":[-8.79789337723567,42.1928817429487],"type":"Point"},"type":"Feature","properties":{"tipo":"Cocina española","address":"Praia de Canido, 217-B","image_uri":"http://www.turismodevigo.org/sites/turismodevigo/files/res251.jpg","postcode":"36390","description":"Tiene capacidad para 28 comensales. Permanece cerrado los domingos.","lon":-8.79789337723567,"title":"Basilio Toralla","type":57,"layer":"restaurantes","phone":"986490061","web":null,"subcategoria":"Restaurante de 1 Tenedor","idpoi":8956,"mp3_uri":null,"lang":"es-ES","lat":42.1928817429487}},{"geometry":{"coordinates":[-8.72916207686991,42.2373301046046],"type":"Point"},"type":"Feature","properties":{"tipo":"Cocina gallega","address":"Ribeira do Berbés, 27","image_uri":"http://www.turismodevigo.org/sites/turismodevigo/files/res253.jpg","postcode":"36214","description":"Tiene capacidad para 8 comensales.","lon":-8.72916207686991,"title":"Turista","type":7,"layer":"restaurantes","phone":"986222007","web":"www.restauranteturista.es","subcategoria":"Restaurante de 1 Tenedor","idpoi":8957,"mp3_uri":null,"lang":"es-ES","lat":42.2373301046046}},{"geometry":{"coordinates":[-8.70275191977136,42.2517815770992],"type":"Point"},"type":"Feature","properties":{"tipo":"Cocina española","address":"Piñeiro, 56","image_uri":"http://www.turismodevigo.org/sites/turismodevigo/files/res254.jpg","postcode":"36207","description":"Tiene capacidad para 22 comensales.","lon":-8.70275191977136,"title":"A Lareira das Irmáns","type":57,"layer":"restaurantes","phone":"986373388","web":null,"subcategoria":"Restaurante de 1 Tenedor","idpoi":8958,"mp3_uri":null,"lang":"es-ES","lat":42.2517815770992}},{"geometry":{"coordinates":[-8.67158416062848,42.2130023507443],"type":"Point"},"type":"Feature","properties":{"tipo":"Cocina española","address":"Avda. Madrid (Cabral)","image_uri":"http://www.turismodevigo.org/sites/turismodevigo/files/res240.jpg","postcode":"36318","description":"Tiene capacidad para 80 comensales.","lon":-8.67158416062848,"title":"Seijo","type":57,"layer":"restaurantes","phone":"986279303","web":"www.restauranteseijo.com","subcategoria":"Restaurante de 1 Tenedor","idpoi":8947,"mp3_uri":null,"lang":"es-ES","lat":42.2130023507443}},{"geometry":{"coordinates":[-8.71806359326152,42.2298357807375],"type":"Point"},"type":"Feature","properties":{"tipo":"Cocina española","address":"Pizarro, 11","image_uri":"http://www.turismodevigo.org/sites/turismodevigo/files/res238.jpg","postcode":"36204","description":"Tiene capacidad para 24 comensales. Permanece cerrado los domingos.","lon":-8.71806359326152,"title":"Saratoga","type":57,"layer":"restaurantes","phone":"986410782","web":null,"subcategoria":"Restaurante de 1 Tenedor","idpoi":8946,"mp3_uri":null,"lang":"es-ES","lat":42.2298357807375}},{"geometry":{"coordinates":[-8.6914049162457,42.218006596648],"type":"Point"},"type":"Feature","properties":{"tipo":"Asador","address":"Ctra. Vieja de Madrid, 66","image_uri":"http://www.turismodevigo.org/sites/turismodevigo/files/res236.jpg","postcode":"36214","description":"Tiene capacidad para 50 comensales.","lon":-8.6914049162457,"title":"Casa Saillo","type":58,"layer":"restaurantes","phone":"986275804","web":null,"subcategoria":"Restaurante de 1 Tenedor","idpoi":8945,"mp3_uri":null,"lang":"es-ES","lat":42.218006596648}},{"geometry":{"coordinates":[-8.70805008350867,42.2320375900495],"type":"Point"},"type":"Feature","properties":{"tipo":"Cocina española","address":"Travesía de Vigo, 10","image_uri":"http://www.turismodevigo.org/sites/turismodevigo/files/res241.jpg","postcode":"36206","description":"Tiene capacidad para 48 comensales.","lon":-8.70805008350867,"title":"Señor","type":57,"layer":"restaurantes","phone":"986252311","web":null,"subcategoria":"Restaurante de 1 Tenedor","idpoi":8948,"mp3_uri":null,"lang":"es-ES","lat":42.2320375900495}},{"geometry":{"coordinates":[-8.69824655849436,42.2421025769561],"type":"Point"},"type":"Feature","properties":{"tipo":"Cocina española","address":"Aragón, 222","image_uri":"http://www.turismodevigo.org/sites/turismodevigo/files/res224.jpg","postcode":"36207","description":"Tiene capacidad para 34 comensales. Permanece cerrado los domingos.","lon":-8.69824655849436,"title":"Rancho Grande","type":57,"layer":"restaurantes","phone":"986271866","web":null,"subcategoria":"Restaurante de 1 Tenedor","idpoi":8935,"mp3_uri":null,"lang":"es-ES","lat":42.2421025769561}},{"geometry":{"coordinates":[-8.71956815723729,42.2387800093208],"type":"Point"},"type":"Feature","properties":{"tipo":"Cocina española","address":"República Argentina, 4","image_uri":"http://www.turismodevigo.org/sites/turismodevigo/files/res227.jpg","postcode":"36201","description":"Tiene capacidad para 80 comensales.","lon":-8.71956815723729,"title":"Reguera","type":57,"layer":"restaurantes","phone":"986225019","web":"www.restaurantereguera.es","subcategoria":"Restaurante de 1 Tenedor","idpoi":8936,"mp3_uri":null,"lang":"es-ES","lat":42.2387800093208}},{"geometry":{"coordinates":[-8.73078576002285,42.2351703667804],"type":"Point"},"type":"Feature","properties":{"tipo":"Cocina española","address":"Torrecedeira, 3","image_uri":"http://www.turismodevigo.org/sites/turismodevigo/files/res228.jpg","postcode":"36202","description":"Tiene capacidad para 28 comensales. Permanece cerrado los sábados.","lon":-8.73078576002285,"title":"Reposo del Pescador","type":57,"layer":"restaurantes","phone":"986434930","web":null,"subcategoria":"Restaurante de 1 Tenedor","idpoi":8937,"mp3_uri":null,"lang":"es-ES","lat":42.2351703667804}},{"geometry":{"coordinates":[-8.71951748435884,42.2389860544992],"type":"Point"},"type":"Feature","properties":{"tipo":"Cocina española","address":"Avda. García Barbón, 16","image_uri":"http://www.turismodevigo.org/sites/turismodevigo/files/res231.jpg","postcode":"36201","description":"Tiene capacidad para 20 comensales.","lon":-8.71951748435884,"title":"Rías Baixas","type":57,"layer":"restaurantes","phone":"986223041","web":null,"subcategoria":"Restaurante de 2 Tenedores","idpoi":8940,"mp3_uri":null,"lang":"es-ES","lat":42.2389860544992}},{"geometry":{"coordinates":[-8.71812514881939,42.2373833355177],"type":"Point"},"type":"Feature","properties":{"tipo":"Cocina española","address":"García Barbón, 21 Esq.Rep.Arg.","image_uri":"http://www.turismodevigo.org/sites/turismodevigo/files/res232.jpg","postcode":"36201","description":"Tiene capacidad para 93 comensales.","lon":-8.71812514881939,"title":"Rías Baixas-2","type":57,"layer":"restaurantes","phone":"986225145","web":"www.riasbaixas2.com","subcategoria":"Restaurante de 1 Tenedor","idpoi":8941,"mp3_uri":null,"lang":"es-ES","lat":42.2373833355177}},{"geometry":{"coordinates":[-8.72880186206862,42.2380124377267],"type":"Point"},"type":"Feature","properties":{"tipo":"Marisquería","address":"Real, 51","image_uri":"http://www.turismodevigo.org/sites/turismodevigo/files/res233.jpg","postcode":"36202","description":"Tiene capacidad para 88 comensales.","lon":-8.72880186206862,"title":"Rías Gallegas I","type":60,"layer":"restaurantes","phone":"986442022","web":"http://marisqueriariasgallegas.com/","subcategoria":"Restaurante de 1 Tenedor","idpoi":8942,"mp3_uri":null,"lang":"es-ES","lat":42.2380124377267}},{"geometry":{"coordinates":[-8.7025575330978,42.2539249497295],"type":"Point"},"type":"Feature","properties":{"tipo":"Cocina española","address":"Avda. Fermín, 23","image_uri":"http://www.turismodevigo.org/sites/turismodevigo/files/res234.jpg","postcode":"36207","description":"Tiene capacidad para 20 comensales.","lon":-8.7025575330978,"title":"Richote","type":57,"layer":"restaurantes","phone":"986379903","web":null,"subcategoria":"Restaurante de 1 Tenedor","idpoi":8943,"mp3_uri":null,"lang":"es-ES","lat":42.2539249497295}},{"geometry":{"coordinates":[-8.73035368671569,42.2354060001685],"type":"Point"},"type":"Feature","properties":{"tipo":"Cocina española","address":"Santa Marta, 14","image_uri":"http://www.turismodevigo.org/sites/turismodevigo/files/res235.jpg","postcode":"36202","description":"Tiene capacidad para 20 comensales.","lon":-8.73035368671569,"title":"Roucos","type":57,"layer":"restaurantes","phone":"986435150","web":null,"subcategoria":"Restaurante de 1 Tenedor","idpoi":8944,"mp3_uri":null,"lang":"es-ES","lat":42.2354060001685}},{"geometry":{"coordinates":[-8.72122968631581,42.2404723290181],"type":"Point"},"type":"Feature","properties":{"tipo":"Cocina española","address":"Montero Ríos, nº 38","image_uri":"http://www.turismodevigo.org/sites/turismodevigo/files/res161.jpg","postcode":"36201","description":"Tiene capacidad para 56 comensales.","lon":-8.72122968631581,"title":"Marítimo","type":57,"layer":"restaurantes","phone":"986431979","web":null,"subcategoria":"Restaurante de 1 Tenedor","idpoi":8885,"mp3_uri":null,"lang":"es-ES","lat":42.2404723290181}},{"geometry":{"coordinates":[-8.72442636626308,42.2389744532124],"type":"Point"},"type":"Feature","properties":{"tipo":"Cocina de autor","address":"Victoria, 4","image_uri":"http://www.turismodevigo.org/sites/turismodevigo/files/res162.jpg","postcode":"36201","description":"Comida de autor en uno de los restaurantes de referencia en Vigo.","lon":-8.72442636626308,"title":"Maruja Limón","type":59,"layer":"restaurantes","phone":"986473406","web":"www.nove.biz/es/maruja-limon","subcategoria":"Restaurante de 1 Tenedor","idpoi":8886,"mp3_uri":null,"lang":"es-ES","lat":42.2389744532124}},{"geometry":{"coordinates":[-8.69199471742571,42.2565770981637],"type":"Point"},"type":"Feature","properties":{"tipo":"Cocina española","address":"Ríos, 157","image_uri":"http://www.turismodevigo.org/sites/turismodevigo/files/res163.jpg","postcode":"36216","description":"Tiene capacidad para 60 comensales. Permanece cerrado los sábados e los domingos.","lon":-8.69199471742571,"title":"Mare","type":57,"layer":"restaurantes","phone":"986452991","web":null,"subcategoria":"Restaurante de 1 Tenedor","idpoi":8887,"mp3_uri":null,"lang":"es-ES","lat":42.2565770981637}},{"geometry":{"coordinates":[-8.72400195368153,42.2208831269259],"type":"Point"},"type":"Feature","properties":{"tipo":"Otros","address":"Baix. ó Castaño s/n. CC G. Vía","image_uri":"http://www.turismodevigo.org/sites/turismodevigo/files/res164.jpg","postcode":"36205","description":"Tiene capacidad para 199 comensales.","lon":-8.72400195368153,"title":"Mediterranean Buffet","type":10,"layer":"restaurantes","phone":"986417266","web":null,"subcategoria":"Restaurante de 1 Tenedor","idpoi":8888,"mp3_uri":null,"lang":"es-ES","lat":42.2208831269259}},{"geometry":{"coordinates":[-8.72755165062813,42.2183933953298],"type":"Point"},"type":"Feature","properties":{"tipo":"Cocina española","address":"Pastora, 57","image_uri":"http://www.turismodevigo.org/sites/turismodevigo/files/res165.jpg","postcode":"36210","description":"Acogedor restaurante donde se puede degustar los pratos más típicos de la comida gallega.","lon":-8.72755165062813,"title":"Mesón Arbo","type":57,"layer":"restaurantes","phone":"986470337","web":null,"subcategoria":"Restaurante de 1 Tenedor","idpoi":8889,"mp3_uri":null,"lang":"es-ES","lat":42.2183933953298}},{"geometry":{"coordinates":[-8.79688115716961,42.1936975532479],"type":"Point"},"type":"Feature","properties":{"tipo":"Cocina española","address":"Canido - Praia, 157","image_uri":"http://www.turismodevigo.org/sites/turismodevigo/files/res169.jpg","postcode":"36390","description":"Tiene capacidad para 120 comensales. Permanece cerrado los lunes.","lon":-8.79688115716961,"title":"Mesón del Marisco","type":57,"layer":"restaurantes","phone":"986490195","web":"www.mesondomarisco.com","subcategoria":"Restaurante de 1 Tenedor","idpoi":8890,"mp3_uri":null,"lang":"es-ES","lat":42.1936975532479}},{"geometry":{"coordinates":[-8.72577398131487,42.2400696701568],"type":"Point"},"type":"Feature","properties":{"tipo":"Marisquería","address":"Cánovas del Castillo, 24","image_uri":"http://www.turismodevigo.org/sites/turismodevigo/files/res160.jpg","postcode":"36202","description":"Tiene capacidad para 520 comensales.","lon":-8.72577398131487,"title":"Marisquería Bahía","type":60,"layer":"restaurantes","phone":"986449656","web":"www.marisqueriabahia.com","subcategoria":"Restaurante de 2 Tenedores","idpoi":8884,"mp3_uri":null,"lang":"es-ES","lat":42.2400696701568}},{"geometry":{"coordinates":[-8.703248339027,42.2409299774828],"type":"Point"},"type":"Feature","properties":{"tipo":"Cocina gallega","address":"Maestro Montes, 7","image_uri":"http://www.turismodevigo.org/sites/turismodevigo/files/res156.jpg","postcode":"36206","description":"Tiene capacidad para 20 comensales. Permanece cerrado los domingos.","lon":-8.703248339027,"title":"Maintal","type":7,"layer":"restaurantes","phone":"986273834","web":null,"subcategoria":"Restaurante de 1 Tenedor","idpoi":8883,"mp3_uri":null,"lang":"es-ES","lat":42.2409299774828}},{"geometry":{"coordinates":[-8.77429104137984,42.2106387281044],"type":"Point"},"type":"Feature","properties":{"tipo":"Otros","address":"Avda. Samil, 31","image_uri":"http://www.turismodevigo.org/sites/turismodevigo/files/res155.jpg","postcode":"36212","description":"Especialidad en comida rápida","lon":-8.77429104137984,"title":"MacDonalds Samil","type":10,"layer":"restaurantes","phone":"986247743","web":"www.mcdonalds.es","subcategoria":"Restaurante de 1 Tenedor","idpoi":8882,"mp3_uri":null,"lang":"es-ES","lat":42.2106387281044}},{"geometry":{"coordinates":[-8.70016869070523,42.2294316382256],"type":"Point"},"type":"Feature","properties":{"tipo":"Cocina española","address":"Martínez Garrido, 16","image_uri":"http://www.turismodevigo.org/sites/turismodevigo/files/res154.jpg","postcode":"36205","description":"Tiene capacidad para 46 comensales.","lon":-8.70016869070523,"title":"Los Troncos","type":57,"layer":"restaurantes","phone":"986274343","web":null,"subcategoria":"Restaurante de 1 Tenedor","idpoi":8881,"mp3_uri":null,"lang":"es-ES","lat":42.2294316382256}},{"geometry":{"coordinates":[-8.72386340235902,42.2213284409609],"type":"Point"},"type":"Feature","properties":{"tipo":"Cocina española","address":"Centro Comercial A Laxe","image_uri":"http://www.turismodevigo.org/sites/turismodevigo/files/res153.jpg","postcode":"36011","description":"Tiene capacidad para 101 comensales.","lon":-8.72386340235902,"title":"Green","type":57,"layer":"restaurantes","phone":"986136347","web":null,"subcategoria":"Restaurante de 1 Tenedor","idpoi":8880,"mp3_uri":null,"lang":"es-ES","lat":42.2213284409609}},{"geometry":{"coordinates":[-8.7217120095951,42.2155469788441],"type":"Point"},"type":"Feature","properties":{"tipo":"Cocina española","address":"Baixada a Fonte","image_uri":null,"postcode":"36201","description":"Tiene capacidad para 36 comensales. Permanece cerrado los domingos.","lon":-8.7217120095951,"title":"Los Arcos","type":57,"layer":"restaurantes","phone":"986222019","web":null,"subcategoria":"Restaurante de 1 Tenedor","idpoi":8879,"mp3_uri":null,"lang":"es-ES","lat":42.2155469788441}},{"geometry":{"coordinates":[-8.71422957915328,42.2373888384282],"type":"Point"},"type":"Feature","properties":{"tipo":"Cocina española","address":"Canceleiro, 11","image_uri":"http://www.turismodevigo.org/sites/turismodevigo/files/res151.jpg","postcode":"36201","description":"Tiene capacidad para 50 comensales.","lon":-8.71422957915328,"title":"Lizarrán","type":57,"layer":"restaurantes","phone":"986227306","web":"www.lizarran.es","subcategoria":"Restaurante de 1 Tenedor","idpoi":8878,"mp3_uri":null,"lang":"es-ES","lat":42.2373888384282}},{"geometry":{"coordinates":[-8.71527214654075,42.2342823209787],"type":"Point"},"type":"Feature","properties":{"tipo":"Cocina española","address":"Lepanto, 28","image_uri":"http://www.turismodevigo.org/sites/turismodevigo/files/res150.jpg","postcode":"36201","description":"Tiene capacidad para 40 comensales.","lon":-8.71527214654075,"title":"Lino","type":57,"layer":"restaurantes","phone":"986220125","web":null,"subcategoria":"Restaurante de 2 Tenedores","idpoi":8877,"mp3_uri":null,"lang":"es-ES","lat":42.2342823209787}},{"geometry":{"coordinates":[-8.75186306728332,42.2267535266928],"type":"Point"},"type":"Feature","properties":{"tipo":"Cocina española","address":"Avda Eduardo Cabello","image_uri":"http://www.turismodevigo.org/sites/turismodevigo/files/res149.jpg","postcode":"36320","description":"Tiene capacidad para 75 comensales.","lon":-8.75186306728332,"title":"Liceo Exprés","type":57,"layer":"restaurantes","phone":"986269910","web":null,"subcategoria":"Restaurante de 1 Tenedor","idpoi":8876,"mp3_uri":null,"lang":"es-ES","lat":42.2267535266928}},{"geometry":{"coordinates":[-8.72395800455993,42.2270562972079],"type":"Point"},"type":"Feature","properties":{"tipo":"Cocina española","address":"Baleares, 16","image_uri":"http://www.turismodevigo.org/sites/turismodevigo/files/res170.jpg","postcode":"36203","description":"Tiene capacidad para 40 comensales.","lon":-8.72395800455993,"title":"Mesón do Lois","type":57,"layer":"restaurantes","phone":"986424703","web":null,"subcategoria":"Restaurante de 1 Tenedor","idpoi":8891,"mp3_uri":null,"lang":"es-ES","lat":42.2270562972079}},{"geometry":{"coordinates":[-8.73122984997188,42.2340453105556],"type":"Point"},"type":"Feature","properties":{"tipo":"Cocina española","address":"Torrecedeira, 21","image_uri":"http://www.turismodevigo.org/sites/turismodevigo/files/res171.jpg","postcode":"36202","description":"Tiene capacidad para 44 comensales. Permanece cerrado los domingos.","lon":-8.73122984997188,"title":"Mesón do Recanto","type":57,"layer":"restaurantes","phone":"986432485","web":null,"subcategoria":"Restaurante de 1 Tenedor","idpoi":8892,"mp3_uri":null,"lang":"es-ES","lat":42.2340453105556}},{"geometry":{"coordinates":[-8.71882739716872,42.2392617979952],"type":"Point"},"type":"Feature","properties":{"tipo":"Cocina española","address":"Areal, 18","image_uri":"http://www.turismodevigo.org/sites/turismodevigo/files/res189.jpg","postcode":"36201","description":"Tiene capacidad para 72 comensales. Permanece cerrado los domingos.","lon":-8.71882739716872,"title":"Tenoia","type":57,"layer":"restaurantes","phone":"986220774","web":null,"subcategoria":"Restaurante de 1 Tenedor","idpoi":8907,"mp3_uri":null,"lang":"es-ES","lat":42.2392617979952}},{"geometry":{"coordinates":[-8.75318763107563,42.2253641413845],"type":"Point"},"type":"Feature","properties":{"tipo":"Cocina española","address":"Eduardo Cabello, 25","image_uri":"http://www.turismodevigo.org/sites/turismodevigo/files/res188.jpg","postcode":"36208","description":"Destaca por la amplia variedad de empanadas. Tiene capacidad para 85 comensales. Permanece cerrado los lunes.","lon":-8.75318763107563,"title":"O Garfo","type":57,"layer":"restaurantes","phone":"986202008","web":"www.ogarfo.com","subcategoria":"Restaurante de 1 Tenedor","idpoi":8906,"mp3_uri":null,"lang":"es-ES","lat":42.2253641413845}},{"geometry":{"coordinates":[-8.81176001306037,42.177922730438],"type":"Point"},"type":"Feature","properties":{"tipo":"Cocina española","address":"Mide, 72","image_uri":"http://www.turismodevigo.org/sites/turismodevigo/files/res186.jpg","postcode":"36390","description":"Tiene capacidad para 50 comensales. Permanece cerrado los lunes.","lon":-8.81176001306037,"title":"O Carro","type":57,"layer":"restaurantes","phone":"986491551","web":null,"subcategoria":"Restaurante de 1 Tenedor","idpoi":8904,"mp3_uri":null,"lang":"es-ES","lat":42.177922730438}},{"geometry":{"coordinates":[-8.73138323539244,42.2213097971221],"type":"Point"},"type":"Feature","properties":{"tipo":"Cocina española","address":"Alfonso X el Sabio, 4","image_uri":"http://www.turismodevigo.org/sites/turismodevigo/files/res185.jpg","postcode":"36211","description":"Tiene capacidad para 30 comensales. Permanece cerrado los domingos.","lon":-8.73138323539244,"title":"Taquería Mexicana","type":57,"layer":"restaurantes","phone":"986201140","web":null,"subcategoria":"Restaurante de 1 Tenedor","idpoi":8903,"mp3_uri":null,"lang":"es-ES","lat":42.2213097971221}},{"geometry":{"coordinates":[-8.72798149965943,42.2183300752656],"type":"Point"},"type":"Feature","properties":{"tipo":"Cocina española","address":"Pastora, , 82","image_uri":"http://www.turismodevigo.org/sites/turismodevigo/files/res184.jpg","postcode":"36210","description":"Tiene capacidad para 30 comensales. Permanece cerrado los domingos.","lon":-8.72798149965943,"title":"O Furancho","type":57,"layer":"restaurantes","phone":"986471838","web":null,"subcategoria":"Restaurante de 1 Tenedor","idpoi":8902,"mp3_uri":null,"lang":"es-ES","lat":42.2183300752656}},{"geometry":{"coordinates":[-8.72188260264404,42.2306022290015],"type":"Point"},"type":"Feature","properties":{"tipo":"Cocina española","address":"Couto, 7","image_uri":"http://www.turismodevigo.org/sites/turismodevigo/files/res183.jpg","postcode":"36203","description":"Tiene capacidad para 32 comensales. Permanece cerrado los domingos.","lon":-8.72188260264404,"title":"Nuevo Maitetxu","type":57,"layer":"restaurantes","phone":"986420151","web":null,"subcategoria":"Restaurante de 1 Tenedor","idpoi":8901,"mp3_uri":null,"lang":"es-ES","lat":42.2306022290015}},{"geometry":{"coordinates":[-8.7318808693725,42.2290677778782],"type":"Point"},"type":"Feature","properties":{"tipo":"Cocina española","address":"Pi e Margall, 137","image_uri":"http://www.turismodevigo.org/sites/turismodevigo/files/res182.jpg","postcode":"36202","description":"Tiene capacidad para 32 comensales. Permanece cerrado los martes.","lon":-8.7318808693725,"title":"Nicola","type":57,"layer":"restaurantes","phone":"986298813","web":null,"subcategoria":"Restaurante de 1 Tenedor","idpoi":8900,"mp3_uri":null,"lang":"es-ES","lat":42.2290677778782}},{"geometry":{"coordinates":[-8.77266229541468,42.2107498903773],"type":"Point"},"type":"Feature","properties":{"tipo":"Cocina española","address":"Av. Europa, 93","image_uri":"http://www.turismodevigo.org/sites/turismodevigo/files/res181.jpg","postcode":"36210","description":"Tiene capacidad para 112 comensales.","lon":-8.77266229541468,"title":"Navia","type":57,"layer":"restaurantes","phone":"986244659","web":"www.restaurantenavia.com","subcategoria":"Restaurante de 2 Tenedores","idpoi":8899,"mp3_uri":null,"lang":"es-ES","lat":42.2107498903773}},{"geometry":{"coordinates":[-8.70597150193362,42.2342271817381],"type":"Point"},"type":"Feature","properties":{"tipo":"Cocina española","address":"Travesía de Vigo, 40","image_uri":"http://www.turismodevigo.org/sites/turismodevigo/files/res180.jpg","postcode":"36207","description":"Tiene capacidad para 76 comensales. Permanece cerrado los domingos.","lon":-8.70597150193362,"title":"Montreal","type":57,"layer":"restaurantes","phone":"986253610","web":null,"subcategoria":"Restaurante de 1 Tenedor","idpoi":8898,"mp3_uri":null,"lang":"es-ES","lat":42.2342271817381}},{"geometry":{"coordinates":[-8.73551152631634,42.2162262217105],"type":"Point"},"type":"Feature","properties":{"tipo":"Cocina española","address":"Avda. Fragoso, 46","image_uri":"http://www.turismodevigo.org/sites/turismodevigo/files/res176.jpg","postcode":"36210","description":"Tiene capacidad para 45 comensales.","lon":-8.73551152631634,"title":"Mesón O Hórreo","type":57,"layer":"restaurantes","phone":"986244441","web":null,"subcategoria":"Restaurante de 1 Tenedor","idpoi":8897,"mp3_uri":null,"lang":"es-ES","lat":42.2162262217105}},{"geometry":{"coordinates":[-8.7303412756398,42.2244556951599],"type":"Point"},"type":"Feature","properties":{"tipo":"Cocina española","address":"Alvaro Cunqueiro, 3","image_uri":"http://www.turismodevigo.org/sites/turismodevigo/files/res175.jpg","postcode":"36211","description":"Tiene capacidad para 24 comensales. Permanece cerrado los sábados e los domingos.","lon":-8.7303412756398,"title":"Mesón Manzaneda","type":57,"layer":"restaurantes","phone":"986237273","web":null,"subcategoria":"Restaurante de 1 Tenedor","idpoi":8896,"mp3_uri":null,"lang":"es-ES","lat":42.2244556951599}},{"geometry":{"coordinates":[-8.66016284046749,42.2481507808927],"type":"Point"},"type":"Feature","properties":{"tipo":"Cocina española","address":"Subida o viaxador, 49","image_uri":"http://www.turismodevigo.org/sites/turismodevigo/files/res174.jpg","postcode":"36317","description":"Tiene capacidad para 60 comensales. Permanece cerrado los lunes.","lon":-8.66016284046749,"title":"Mesón Groba","type":57,"layer":"restaurantes","phone":"986370992","web":null,"subcategoria":"Restaurante de 1 Tenedor","idpoi":8895,"mp3_uri":null,"lang":"es-ES","lat":42.2481507808927}},{"geometry":{"coordinates":[-8.72612558189086,42.2389887631914],"type":"Point"},"type":"Feature","properties":{"tipo":"Cocina española","address":"Triunfo, 5","image_uri":"http://www.turismodevigo.org/sites/turismodevigo/files/res173.jpg","postcode":"36202","description":"Tiene capacidad para 24 comensales.","lon":-8.72612558189086,"title":"Mesón El Capitán","type":57,"layer":"restaurantes","phone":"986220940","web":null,"subcategoria":"Restaurante de 1 Tenedor","idpoi":8894,"mp3_uri":null,"lang":"es-ES","lat":42.2389887631914}},{"geometry":{"coordinates":[-8.72442,42.237257],"type":"Point"},"type":"Feature","properties":{"tipo":"Cocina española","address":"Perú, 2","image_uri":"http://www.turismodevigo.org/sites/turismodevigo/files/res172.jpg","postcode":"36202","description":"Tiene capacidad para 70 comensales.","lon":-8.72442,"title":"Mesón el Águila","type":57,"layer":"restaurantes","phone":"986224152","web":"http://cotodelaguila.es/web/meson-el-aguila/","subcategoria":"Restaurante de 1 Tenedor","idpoi":8893,"mp3_uri":null,"lang":"es-ES","lat":42.237257}},{"geometry":{"coordinates":[-8.72431375985785,42.2392354386126],"type":"Point"},"type":"Feature","properties":{"tipo":"Cocina española","address":"García Olloqui, 36","image_uri":"http://www.turismodevigo.org/sites/turismodevigo/files/res191.jpg","postcode":"36201","description":"Tiene capacidad para 80 comensales.","lon":-8.72431375985785,"title":"O Labrego Urbán","type":57,"layer":"restaurantes","phone":"986446291","web":"www.olabregourban.com","subcategoria":"Restaurante de 1 Tenedor","idpoi":8908,"mp3_uri":null,"lang":"es-ES","lat":42.2392354386126}},{"geometry":{"coordinates":[-8.71578259881168,42.2317770734583],"type":"Point"},"type":"Feature","properties":{"tipo":"Cocina española","address":"Ecuador, 92","image_uri":"http://www.turismodevigo.org/sites/turismodevigo/files/res148.jpg","postcode":"36204","description":"Tiene capacidad para 88 comensales. Permanece cerrado los lunes.","lon":-8.71578259881168,"title":"Laxeiro","type":57,"layer":"restaurantes","phone":"986425204","web":"www.restaurante-laxeiro-vigo.com/es","subcategoria":"Restaurante de 1 Tenedor","idpoi":8875,"mp3_uri":null,"lang":"es-ES","lat":42.2317770734583}},{"geometry":{"coordinates":[-8.69655218747468,42.2193675078609],"type":"Point"},"type":"Feature","properties":{"tipo":"Cocina española","address":"Avda. Alcalde Lavadores, 96","image_uri":"http://www.turismodevigo.org/sites/turismodevigo/files/res147.jpg","postcode":"36214","description":"Tiene capacidad para 80 comensales. Permanece cerrado los domingos.","lon":-8.69655218747468,"title":"Restaurante Naturaleza","type":57,"layer":"restaurantes","phone":"986376893","web":null,"subcategoria":"Restaurante de 1 Tenedor","idpoi":8874,"mp3_uri":null,"lang":"es-ES","lat":42.2193675078609}},{"geometry":{"coordinates":[-8.7036528391992,42.2258804979673],"type":"Point"},"type":"Feature","properties":{"tipo":"Cocina española","address":"Martínez Garrido, 49","image_uri":"http://www.turismodevigo.org/sites/turismodevigo/files/res187.jpg","postcode":"36205","description":"Tiene capacidad para 30 comensales.","lon":-8.7036528391992,"title":"O Conquistador","type":57,"layer":"restaurantes","phone":"986274873","web":null,"subcategoria":"Restaurante de 1 Tenedor","idpoi":8905,"mp3_uri":null,"lang":"es-ES","lat":42.2258804979673}},{"geometry":{"coordinates":[-8.75179086591702,42.222409201473],"type":"Point"},"type":"Feature","properties":{"tipo":"Cocina española","address":"Avda. Camilo Veiga, 29-B","image_uri":"http://www.turismodevigo.org/sites/turismodevigo/files/res126.jpg","postcode":"36208","description":"Tiene capacidad para 32 comensales.","lon":-8.75179086591702,"title":"Yguazú","type":57,"layer":"restaurantes","phone":"986200508","web":"www.restaurantegaviota.es","subcategoria":"Restaurante de 1 Tenedor","idpoi":8859,"mp3_uri":null,"lang":"es-ES","lat":42.222409201473}},{"geometry":{"coordinates":[-8.72603500703896,42.2398519393706],"type":"Point"},"type":"Feature","properties":{"tipo":"Cocina española","address":"Pescadería, 5","image_uri":"http://www.turismodevigo.org/sites/turismodevigo/files/res129.jpg","postcode":"36202","description":"Tiene capacidad para 36 comensales.","lon":-8.72603500703896,"title":"La Marina","type":57,"layer":"restaurantes","phone":"986432370","web":null,"subcategoria":"Restaurante de 2 Tenedores","idpoi":8860,"mp3_uri":null,"lang":"es-ES","lat":42.2398519393706}},{"geometry":{"coordinates":[-8.7242565122274,42.2237706514745],"type":"Point"},"type":"Feature","properties":{"tipo":"Cocina española","address":"Gran Vía, 122","image_uri":"http://www.turismodevigo.org/sites/turismodevigo/files/res130.jpg","postcode":"36203","description":"Tiene capacidad para 68 comensales.","lon":-8.7242565122274,"title":"La Nata","type":57,"layer":"restaurantes","phone":"986480449","web":null,"subcategoria":"Restaurante de 1 Tenedor","idpoi":8861,"mp3_uri":null,"lang":"es-ES","lat":42.2237706514745}},{"geometry":{"coordinates":[-8.71424622938861,42.2376212185846],"type":"Point"},"type":"Feature","properties":{"tipo":"Tapas","address":"Serafín Avendaño. 8","image_uri":"http://www.turismodevigo.org/sites/turismodevigo/files/res132.jpg","postcode":"36201","description":"Especialidad en carnes de buee e comidas de grupo.","lon":-8.71424622938861,"title":"La Oliva","type":13,"layer":"restaurantes","phone":"986228864","web":"www.restaurantelaoliva.com","subcategoria":"Restaurante de 1 Tenedor","idpoi":8862,"mp3_uri":null,"lang":"es-ES","lat":42.2376212185846}},{"geometry":{"coordinates":[-8.72577629956369,42.2391348112079],"type":"Point"},"type":"Feature","properties":{"tipo":"Cocina española","address":"A Palma, 7","image_uri":"http://www.turismodevigo.org/sites/turismodevigo/files/res133.jpg","postcode":"36202","description":"Tiene capacidad para 72 comensales. Permanece cerrado los domingos.","lon":-8.72577629956369,"title":"La Palma","type":57,"layer":"restaurantes","phone":"986430678","web":null,"subcategoria":"Restaurante de 2 Tenedores","idpoi":8863,"mp3_uri":null,"lang":"es-ES","lat":42.2391348112079}},{"geometry":{"coordinates":[-8.72815547708111,42.2385884246575],"type":"Point"},"type":"Feature","properties":{"tipo":"Cocina gallega","address":"Rua Alta, 31","image_uri":"http://www.turismodevigo.org/sites/turismodevigo/files/res134.jpg","postcode":"36202","description":"Tiene capacidad para 8 comensales. Permanece cerrado los domingos.","lon":-8.72815547708111,"title":"La Parra","type":7,"layer":"restaurantes","phone":"986438086","web":null,"subcategoria":"Restaurante de 1 Tenedor","idpoi":8864,"mp3_uri":null,"lang":"es-ES","lat":42.2385884246575}},{"geometry":{"coordinates":[-8.74780709630698,42.2108567694859],"type":"Point"},"type":"Feature","properties":{"tipo":"Asador","address":"Padre Seixas, 40. Baixo","image_uri":"http://www.turismodevigo.org/sites/turismodevigo/files/res135.jpg","postcode":"36209","description":"Tiene capacidad para 65 comensales.","lon":-8.74780709630698,"title":"La Pasiva Restaurante Churrasquería","type":58,"layer":"restaurantes","phone":"986128030","web":"www.lapasiva.es","subcategoria":"Restaurante de 1 Tenedor","idpoi":8865,"mp3_uri":null,"lang":"es-ES","lat":42.2108567694859}},{"geometry":{"coordinates":[-8.72582028635562,42.2398590519229],"type":"Point"},"type":"Feature","properties":{"tipo":"Cocina española","address":"Pescadería, 3","image_uri":"http://www.turismodevigo.org/sites/turismodevigo/files/res137.jpg","postcode":"36202","description":"Tiene capacidad para 36 comensales.","lon":-8.72582028635562,"title":"La Piedra","type":57,"layer":"restaurantes","phone":"986223765","web":null,"subcategoria":"Restaurante de 1 Tenedor","idpoi":8866,"mp3_uri":null,"lang":"es-ES","lat":42.2398590519229}},{"geometry":{"coordinates":[-8.71639280725377,42.2383107120388],"type":"Point"},"type":"Feature","properties":{"tipo":"Cocina española","address":"Oporto, 7","image_uri":"http://www.turismodevigo.org/sites/turismodevigo/files/res144.jpg","postcode":"36201","description":"Tiene capacidad para 40 comensales. Permanece cerrado los domingos.","lon":-8.71639280725377,"title":"La Trucha 1","type":57,"layer":"restaurantes","phone":"986227304","web":null,"subcategoria":"Restaurante de 1 Tenedor","idpoi":8873,"mp3_uri":null,"lang":"es-ES","lat":42.2383107120388}},{"geometry":{"coordinates":[-8.7218924992498,42.2397773383535],"type":"Point"},"type":"Feature","properties":{"tipo":"Cocina española","address":"Pablo Murillo, 4 bajo","image_uri":"http://www.turismodevigo.org/sites/turismodevigo/files/res143.jpg","postcode":"36201","description":"Tiene capacidad para 70 comensales. Permanece cerrado los domingos.","lon":-8.7218924992498,"title":"La Trastienda del Cuatro","type":57,"layer":"restaurantes","phone":"986298342","web":"www.latrastiendadelcuatro.com","subcategoria":"Restaurante de 1 Tenedor","idpoi":8872,"mp3_uri":null,"lang":"es-ES","lat":42.2397773383535}},{"geometry":{"coordinates":[-8.72890841192319,42.2237712591894],"type":"Point"},"type":"Feature","properties":{"tipo":"Cocina de autor","address":"Álvaro Cunqueiro, 30","image_uri":"http://www.turismodevigo.org/sites/turismodevigo/files/res142.jpg","postcode":"36201","description":"Tiene capacidad para 40 comensales. Permanece cerrado los domingos.","lon":-8.72890841192319,"title":"La Tahona del Chef","type":59,"layer":"restaurantes","phone":"986120015","web":"www.latahonadelchef.com/","subcategoria":"Restaurante de 2 Tenedores","idpoi":8871,"mp3_uri":null,"lang":"es-ES","lat":42.2237712591894}},{"geometry":{"coordinates":[-8.71713621535265,42.2383068819058],"type":"Point"},"type":"Feature","properties":{"tipo":"Cocina española","address":"Rosalía de Castro, 25 bajo","image_uri":"http://www.turismodevigo.org/sites/turismodevigo/files/res141.jpg","postcode":"36201","description":"Tiene capacidad para 133 comensales.","lon":-8.71713621535265,"title":"La Tagliatella","type":57,"layer":"restaurantes","phone":"986116011","web":"www.latagliatella.es/esp/latagliatella-vigo-rosaliadecastro","subcategoria":"Restaurante de 1 Tenedor","idpoi":8870,"mp3_uri":null,"lang":"es-ES","lat":42.2383068819058}},{"geometry":{"coordinates":[-8.72047200787406,42.2355189751278],"type":"Point"},"type":"Feature","properties":{"tipo":"Cocina española","address":"Gil, 2","image_uri":"http://www.turismodevigo.org/sites/turismodevigo/files/res140.jpg","postcode":"36203","description":"Tiene capacidad para 30 comensales. Permanece cerrado los domingos.","lon":-8.72047200787406,"title":"La Taberna de Toni","type":57,"layer":"restaurantes","phone":"986222419","web":null,"subcategoria":"Restaurante de 1 Tenedor","idpoi":8869,"mp3_uri":null,"lang":"es-ES","lat":42.2355189751278}},{"geometry":{"coordinates":[-8.72327631879669,42.240338708919],"type":"Point"},"type":"Feature","properties":{"tipo":"Tapas","address":"Montero Ríos, 10 bajo","image_uri":"http://www.turismodevigo.org/sites/turismodevigo/files/res139.jpg","postcode":"36201","description":"Acogedor restaurante donde se puede degustar los pratos más típicos de la comida gallega.","lon":-8.72327631879669,"title":"La Quilla","type":13,"layer":"restaurantes","phone":"986225347","web":null,"subcategoria":"Restaurante de 1 Tenedor","idpoi":8868,"mp3_uri":null,"lang":"es-ES","lat":42.240338708919}},{"geometry":{"coordinates":[-8.72284061542497,42.2403255768041],"type":"Point"},"type":"Feature","properties":{"tipo":"Cocina española","address":"Montero Ríos, 16-B","image_uri":"http://www.turismodevigo.org/sites/turismodevigo/files/res138.jpg","postcode":"36201","description":"Tiene capacidad para 116 comensales.","lon":-8.72284061542497,"title":"La Portuaria","type":57,"layer":"restaurantes","phone":"986112425","web":null,"subcategoria":"Restaurante de 1 Tenedor","idpoi":8867,"mp3_uri":null,"lang":"es-ES","lat":42.2403255768041}},{"geometry":{"coordinates":[-8.72632358619417,42.2396179993786],"type":"Point"},"type":"Feature","properties":{"tipo":"Marisquería","address":"Plaza de la Piedra, 4","image_uri":"http://www.turismodevigo.org/sites/turismodevigo/files/res082.jpg","postcode":"36201","description":"Los origenes del \"Restaurante El Mosquito\" se centran en la década de los años treinta con una actividad inicial de \"Taberna marinera\" en la que se ofrecía la \"Taza de ribeiro e la tapa de pescaditos fritos\" como producto principal.","lon":-8.72632358619417,"title":"El Mosquito","type":60,"layer":"restaurantes","phone":"986224441","web":"www.elmosquitovigo.com","subcategoria":"Restaurante de 2 Tenedores","idpoi":8823,"mp3_uri":null,"lang":"es-ES","lat":42.2396179993786}},{"geometry":{"coordinates":[-8.727913,42.236632],"type":"Point"},"type":"Feature","properties":{"tipo":"Cocina española","address":"Paseo Alfonso XII, 9","image_uri":"http://www.turismodevigo.org/sites/turismodevigo/files/res083.jpg","postcode":"36202","description":"Tiene capacidad para 42 comensales.","lon":-8.727913,"title":"El Olivo","type":57,"layer":"restaurantes","phone":"986431233","web":null,"subcategoria":"Restaurante de 1 Tenedor","idpoi":8824,"mp3_uri":null,"lang":"es-ES","lat":42.236632}},{"geometry":{"coordinates":[-8.719996,42.23119],"type":"Point"},"type":"Feature","properties":{"tipo":"Cocina española","address":"Nicaragua, 51","image_uri":"http://www.turismodevigo.org/sites/turismodevigo/files/res085.jpg","postcode":"36204","description":"Tiene capacidad para 30 comensales.","lon":-8.719996,"title":"El Parador del Sabor","type":57,"layer":"restaurantes","phone":"986413817","web":null,"subcategoria":"Restaurante de 1 Tenedor","idpoi":8826,"mp3_uri":null,"lang":"es-ES","lat":42.23119}},{"geometry":{"coordinates":[-8.72900842365156,42.2377321100224],"type":"Point"},"type":"Feature","properties":{"tipo":"Cocina gallega","address":"Cesteiros, 7 bajo","image_uri":"http://www.turismodevigo.org/sites/turismodevigo/files/res087.jpg","postcode":"36202","description":"Tiene capacidad para 21 comensales.","lon":-8.72900842365156,"title":"A Curuxa","type":7,"layer":"restaurantes","phone":"986438857","web":null,"subcategoria":"Restaurante de 1 Tenedor","idpoi":8827,"mp3_uri":null,"lang":"es-ES","lat":42.2377321100224}},{"geometry":{"coordinates":[-8.718013,42.239236],"type":"Point"},"type":"Feature","properties":{"tipo":"Cocina española","address":"Areal, 30","image_uri":"http://www.turismodevigo.org/sites/turismodevigo/files/res089.jpg","postcode":"36201","description":"Tiene capacidad para 28 comensales. Permanece cerrado los domingos.","lon":-8.718013,"title":"El Puerto","type":57,"layer":"restaurantes","phone":"986222044","web":null,"subcategoria":"Restaurante de 1 Tenedor","idpoi":8828,"mp3_uri":null,"lang":"es-ES","lat":42.239236}},{"geometry":{"coordinates":[-8.72499353272501,42.2393714486541],"type":"Point"},"type":"Feature","properties":{"tipo":"Cocina española","address":"Laxe, 4","image_uri":"http://www.turismodevigo.org/sites/turismodevigo/files/res090.jpg","postcode":"36202","description":"Tiene capacidad para 48 comensales.","lon":-8.72499353272501,"title":"Don Quijote","type":57,"layer":"restaurantes","phone":"986229346","web":"www.donquijoterestaurante.es","subcategoria":"Restaurante de 2 Tenedores","idpoi":8829,"mp3_uri":null,"lang":"es-ES","lat":42.2393714486541}},{"geometry":{"coordinates":[-8.71821045847876,42.2310414674663],"type":"Point"},"type":"Feature","properties":{"tipo":"Cocina española","address":"Gran Vía, 41","image_uri":"http://www.turismodevigo.org/sites/turismodevigo/files/res091.jpg","postcode":"36204","description":"Tiene capacidad para 50 comensales.","lon":-8.71821045847876,"title":"El Rebozo","type":57,"layer":"restaurantes","phone":"986415444","web":null,"subcategoria":"Restaurante de 2 Tenedores","idpoi":8830,"mp3_uri":null,"lang":"es-ES","lat":42.2310414674663}},{"geometry":{"coordinates":[-8.72356349781453,42.2403270330766],"type":"Point"},"type":"Feature","properties":{"tipo":"Tapas","address":"Montero Ríos, 6","image_uri":"http://www.turismodevigo.org/sites/turismodevigo/files/res092.jpg","postcode":"36201","description":"Este restaurante-tapería tiene capacidad para 40 comensales. Permanece cerrado los domingos.","lon":-8.72356349781453,"title":"El Timón","type":13,"layer":"restaurantes","phone":"986439107","web":"www.eltimonvigo.com","subcategoria":"Restaurante de 2 Tenedores","idpoi":8831,"mp3_uri":null,"lang":"es-ES","lat":42.2403270330766}},{"geometry":{"coordinates":[-8.78090677809628,42.2026683457883],"type":"Point"},"type":"Feature","properties":{"tipo":"Marisquería","address":"A Carrasqueira, s/n","image_uri":"http://www.turismodevigo.org/sites/turismodevigo/files/res093.jpg","postcode":"36331","description":"Tiene capacidad para 50 comensales. Permanece cerrado los domingos.","lon":-8.78090677809628,"title":"El Timón Plaea","type":60,"layer":"restaurantes","phone":"986490815","web":"www.restaurantetimonplaea.com","subcategoria":"Restaurante de 2 Tenedores","idpoi":8832,"mp3_uri":null,"lang":"es-ES","lat":42.2026683457883}},{"geometry":{"coordinates":[-8.72144316159876,42.2399145394163],"type":"Point"},"type":"Feature","properties":{"tipo":"Cocina española","address":"Luis Taboada, 28","image_uri":"http://www.turismodevigo.org/sites/turismodevigo/files/res094.jpg","postcode":"36201","description":"Tiene capacidad para 10 comensales. Permanece cerrado los domingos.","lon":-8.72144316159876,"title":"Esperanza","type":57,"layer":"restaurantes","phone":"986228615","web":"www.casaesperanza.es","subcategoria":"Restaurante de 1 Tenedor","idpoi":8833,"mp3_uri":null,"lang":"es-ES","lat":42.2399145394163}},{"geometry":{"coordinates":[-8.72002830668622,42.2375255433176],"type":"Point"},"type":"Feature","properties":{"tipo":"Cocina española","address":"Galerías Durán; Príncipe","image_uri":"http://www.turismodevigo.org/sites/turismodevigo/files/res081.jpg","postcode":"36202","description":"Restaurante céntrico. Dispone de menú del día.","lon":-8.72002830668622,"title":"Azul&Chocolate","type":57,"layer":"restaurantes","phone":"986113529","web":null,"subcategoria":"Restaurante de 1 Tenedor","idpoi":8822,"mp3_uri":null,"lang":"es-ES","lat":42.2375255433176}},{"geometry":{"coordinates":[-8.77136236690184,42.1945383329712],"type":"Point"},"type":"Feature","properties":{"tipo":"Cocina española","address":"Carretera Baiona-Coruxo","image_uri":"http://www.turismodevigo.org/sites/turismodevigo/files/res080.jpg","postcode":"36331","description":"Tiene capacidad para 56 comensales. Permanece cerrado los sábados e los domingos.","lon":-8.77136236690184,"title":"El Mástil","type":57,"layer":"restaurantes","phone":"986294047","web":null,"subcategoria":"Restaurante de 2 Tenedores","idpoi":8821,"mp3_uri":null,"lang":"es-ES","lat":42.1945383329712}},{"geometry":{"coordinates":[-8.70704243792255,42.2059900751008],"type":"Point"},"type":"Feature","properties":{"tipo":"Cocina española","address":"Rúa de Saa, 114","image_uri":"http://www.turismodevigo.org/sites/turismodevigo/files/res078.jpg","postcode":"36312","description":"Tiene capacidad para 60 comensales. Permanece cerrado los lunes.","lon":-8.70704243792255,"title":"Danubio Azul","type":57,"layer":"restaurantes","phone":"986420025","web":null,"subcategoria":"Restaurante de 1 Tenedor","idpoi":8820,"mp3_uri":null,"lang":"es-ES","lat":42.2059900751008}},{"geometry":{"coordinates":[-8.71953568889172,42.2318212109814],"type":"Point"},"type":"Feature","properties":{"tipo":"Otros","address":"Padre Don Rúa, 11","image_uri":"http://www.turismodevigo.org/sites/turismodevigo/files/res061.jpg","postcode":"36203","description":"Especialidad en cocina mexicana. Tiene capacidad para 42 comensales.","lon":-8.71953568889172,"title":"Chilam Balam","type":10,"layer":"restaurantes","phone":"986116789","web":"www.chilambalam.es","subcategoria":"Restaurante de 1 Tenedor","idpoi":8809,"mp3_uri":null,"lang":"es-ES","lat":42.2318212109814}},{"geometry":{"coordinates":[-8.70894739281557,42.2343708321929],"type":"Point"},"type":"Feature","properties":{"tipo":"Cocina española","address":"Vía Norte, 48","image_uri":"http://www.turismodevigo.org/sites/turismodevigo/files/res063.jpg","postcode":"36206","description":"Tiene capacidad para 28 comensales. Permanece cerrado los domingos.","lon":-8.70894739281557,"title":"Clínica Fátima","type":57,"layer":"restaurantes","phone":"986416376","web":null,"subcategoria":"Restaurante de 1 Tenedor","idpoi":8810,"mp3_uri":null,"lang":"es-ES","lat":42.2343708321929}},{"geometry":{"coordinates":[-8.72592258225806,42.239444479751],"type":"Point"},"type":"Feature","properties":{"tipo":"Otros","address":"Oliva, 10","image_uri":"http://www.turismodevigo.org/sites/turismodevigo/files/res064.jpg","postcode":"36202","description":"Carta amplia e variada. Especialidad en crepes. Tiene capacidad para 60 comensales.","lon":-8.72592258225806,"title":"Cre-Cotté Creperie","type":10,"layer":"restaurantes","phone":"986438226","web":"www.crecotte.com","subcategoria":"Restaurante de 2 Tenedores","idpoi":8811,"mp3_uri":null,"lang":"es-ES","lat":42.239444479751}},{"geometry":{"coordinates":[-8.81243143551653,42.172812328334],"type":"Point"},"type":"Feature","properties":{"tipo":"Cocina española","address":"Ctra. Vigo-Baiona, 152","image_uri":"http://www.turismodevigo.org/sites/turismodevigo/files/res065.jpg","postcode":"36392","description":"Tiene capacidad para 32 comensales.","lon":-8.81243143551653,"title":"Curbeira","type":57,"layer":"restaurantes","phone":"986491260","web":"www.restaurantecurbeira.es","subcategoria":"Restaurante de 1 Tenedor","idpoi":8812,"mp3_uri":null,"lang":"es-ES","lat":42.172812328334}},{"geometry":{"coordinates":[-8.71651504312202,42.2336220152078],"type":"Point"},"type":"Feature","properties":{"tipo":"Cocina española","address":"Brasil, 4","image_uri":"http://www.turismodevigo.org/sites/turismodevigo/files/res066.jpg","postcode":"36204","description":"Tiene capacidad para 71 comensales. Permanece cerrado los domingos.","lon":-8.71651504312202,"title":"Curcuma","type":57,"layer":"restaurantes","phone":"986411127","web":null,"subcategoria":"Restaurante de 1 Tenedor","idpoi":8813,"mp3_uri":null,"lang":"es-ES","lat":42.2336220152078}},{"geometry":{"coordinates":[-8.77380376437467,42.2150550530389],"type":"Point"},"type":"Feature","properties":{"tipo":"Otros","address":"Paseo marítimo de Samil","image_uri":"http://www.turismodevigo.org/sites/turismodevigo/files/res069.jpg","postcode":"36212","description":"Tiene capacidad para 36 comensales.","lon":-8.77380376437467,"title":"Disanremo","type":10,"layer":"restaurantes","phone":"986237904","web":null,"subcategoria":"Restaurante de 2 Tenedores","idpoi":8814,"mp3_uri":null,"lang":"es-ES","lat":42.2150550530389}},{"geometry":{"coordinates":[-8.71521656747943,42.2335423632475],"type":"Point"},"type":"Feature","properties":{"tipo":"Cocina de autor","address":"México, 10","image_uri":"http://www.turismodevigo.org/sites/turismodevigo/files/res071.jpg","postcode":"36204","description":"Tiene capacidad para 45 comensales.","lon":-8.71521656747943,"title":"Doméstica Causa","type":59,"layer":"restaurantes","phone":"986484454","web":null,"subcategoria":"Restaurante de 1 Tenedor","idpoi":8815,"mp3_uri":null,"lang":"es-ES","lat":42.2335423632475}},{"geometry":{"coordinates":[-8.79558839264128,42.1951643224357],"type":"Point"},"type":"Feature","properties":{"tipo":"Cocina española","address":"Canido, Plaea 129","image_uri":"http://www.turismodevigo.org/sites/turismodevigo/files/res072.jpg","postcode":"36390","description":"Tiene capacidad para 64 comensales.","lon":-8.79558839264128,"title":"Durán","type":57,"layer":"restaurantes","phone":"986490837","web":"www.restauranteduran.com","subcategoria":"Restaurante de 1 Tenedor","idpoi":8816,"mp3_uri":null,"lang":"es-ES","lat":42.1951643224357}},{"geometry":{"coordinates":[-8.64096403889381,42.2295444283804],"type":"Point"},"type":"Feature","properties":{"tipo":"Cocina española","address":"Av. Santa Marina, 306","image_uri":"http://www.turismodevigo.org/sites/turismodevigo/files/res074.jpg","postcode":"36318","description":"Tiene capacidad para 62 comensales. Permanece cerrado los lunes.","lon":-8.64096403889381,"title":"Eido Vello","type":57,"layer":"restaurantes","phone":"986486349","web":null,"subcategoria":"Restaurante de 1 Tenedor","idpoi":8818,"mp3_uri":null,"lang":"es-ES","lat":42.2295444283804}},{"geometry":{"coordinates":[-8.72145817018624,42.2400564724959],"type":"Point"},"type":"Feature","properties":{"tipo":"Cocina española","address":"Luis Taboada, 27. Baixo esquerda","image_uri":null,"postcode":"36210","description":"Tiene capacidad para 48 comensales.","lon":-8.72145817018624,"title":"Ébano","type":57,"layer":"restaurantes","phone":"986224540","web":"www.ebano.es","subcategoria":"Restaurante de 2 Tenedores","idpoi":8817,"mp3_uri":null,"lang":"es-ES","lat":42.2400564724959}},{"geometry":{"coordinates":[-8.71963559005619,42.2408161850264],"type":"Point"},"type":"Feature","properties":{"tipo":"Cocina española","address":"Praza da Estrela","image_uri":"http://www.turismodevigo.org/sites/turismodevigo/files/res095.jpg","postcode":"36201","description":"Tiene capacidad para 92 comensales.","lon":-8.71963559005619,"title":"Island","type":57,"layer":"restaurantes","phone":"986134444","web":"http://www.islandclub.es/restaurante/sal.html","subcategoria":"Restaurante de 1 Tenedor","idpoi":8834,"mp3_uri":null,"lang":"es-ES","lat":42.2408161850264}},{"geometry":{"coordinates":[-8.71673937706493,42.229909615743],"type":"Point"},"type":"Feature","properties":{"tipo":"Cocina española","address":"Pizarro s/n","image_uri":"http://www.turismodevigo.org/sites/turismodevigo/files/res111.jpg","postcode":"36204","description":"Tiene capacidad para 160 comensales.","lon":-8.71673937706493,"title":"Hospital Xeral de Vigo","type":57,"layer":"restaurantes","phone":"986415676","web":null,"subcategoria":"Restaurante de 1 Tenedor","idpoi":8848,"mp3_uri":null,"lang":"es-ES","lat":42.229909615743}},{"geometry":{"coordinates":[-8.71881142911695,42.238138892652],"type":"Point"},"type":"Feature","properties":{"tipo":"Cocina española","address":"Rosalía de Castro, 14","image_uri":"http://www.turismodevigo.org/sites/turismodevigo/files/res112.jpg","postcode":"36201","description":"Tiene capacidad para 108 comensales.","lon":-8.71881142911695,"title":"Tommy Mel´s","type":57,"layer":"restaurantes","phone":"986116061","web":"www.tommymels.com/","subcategoria":"Restaurante de 1 Tenedor","idpoi":8849,"mp3_uri":null,"lang":"es-ES","lat":42.238138892652}},{"geometry":{"coordinates":[-8.72121650462853,42.2391582681919],"type":"Point"},"type":"Feature","properties":{"tipo":"Cocina española","address":"Plaza de Compostela, 16","image_uri":"http://www.turismodevigo.org/sites/turismodevigo/files/res115.jpg","postcode":"36201","description":"Tiene capacidad para 78 comensales.","lon":-8.72121650462853,"title":"Gurpegui Gastrobar","type":57,"layer":"restaurantes","phone":"986222025","web":null,"subcategoria":"Restaurante de 2 Tenedores","idpoi":8850,"mp3_uri":null,"lang":"es-ES","lat":42.2391582681919}},{"geometry":{"coordinates":[-8.72175053521241,42.2343097852512],"type":"Point"},"type":"Feature","properties":{"tipo":"Cocina española","address":"Ecuador, 23","image_uri":"http://www.turismodevigo.org/sites/turismodevigo/files/res116.jpg","postcode":"36203","description":"Tiene capacidad para 45 comensales.","lon":-8.72175053521241,"title":"Isola Bella","type":57,"layer":"restaurantes","phone":"986435505","web":null,"subcategoria":"Restaurante de 1 Tenedor","idpoi":8851,"mp3_uri":null,"lang":"es-ES","lat":42.2343097852512}},{"geometry":{"coordinates":[-8.7939143050128,42.1965000045928],"type":"Point"},"type":"Feature","properties":{"tipo":"Cocina española","address":"Praia de Canido, 125","image_uri":"http://www.turismodevigo.org/sites/turismodevigo/files/res118.jpg","postcode":"36390","description":"Tiene capacidad para 20 comensales.","lon":-8.7939143050128,"title":"Tapería Mirambel","type":57,"layer":"restaurantes","phone":"986490923","web":null,"subcategoria":"Restaurante de 2 Tenedores","idpoi":8852,"mp3_uri":null,"lang":"es-ES","lat":42.1965000045928}},{"geometry":{"coordinates":[-8.6953214604926,42.2495631281247],"type":"Point"},"type":"Feature","properties":{"tipo":"Otros","address":"Avda. Buenos Aires 7- Bajo","image_uri":"http://www.turismodevigo.org/sites/turismodevigo/files/res119.jpg","postcode":"36207","description":"Tiene capacidad para 50 comensales.","lon":-8.6953214604926,"title":"Wenzhoo","type":10,"layer":"restaurantes","phone":"986262058","web":null,"subcategoria":"Restaurante de 1 Tenedor","idpoi":8853,"mp3_uri":null,"lang":"es-ES","lat":42.2495631281247}},{"geometry":{"coordinates":[-8.74144712763316,42.2136280643331],"type":"Point"},"type":"Feature","properties":{"tipo":"Tapas","address":"Manuel Castro, 12","image_uri":"http://www.turismodevigo.org/sites/turismodevigo/files/res120.jpg","postcode":"36212","description":"Tiene capacidad para 116 comensales.","lon":-8.74144712763316,"title":"Juan Gaviota","type":13,"layer":"restaurantes","phone":"986164715","web":"www.restaurantegaviota.es","subcategoria":"Restaurante de 1 Tenedor","idpoi":8854,"mp3_uri":null,"lang":"es-ES","lat":42.2136280643331}},{"geometry":{"coordinates":[-8.72709981396905,42.2394065602963],"type":"Point"},"type":"Feature","properties":{"tipo":"Cocina española","address":"Teófilo Llorente 27, baixo","image_uri":"http://www.turismodevigo.org/sites/turismodevigo/files/res122.jpg","postcode":"36202","description":"Tiene capacidad para 53 comensales.","lon":-8.72709981396905,"title":"La Carbonara","type":57,"layer":"restaurantes","phone":"986442908","web":null,"subcategoria":"Restaurante de 1 Tenedor","idpoi":8855,"mp3_uri":null,"lang":"es-ES","lat":42.2394065602963}},{"geometry":{"coordinates":[-8.71664717191985,42.2354624847196],"type":"Point"},"type":"Feature","properties":{"tipo":"Cocina española","address":"Martín Codax, 10","image_uri":"http://www.turismodevigo.org/sites/turismodevigo/files/res123.jpg","postcode":"36201","description":"Tiene capacidad para 60 comensales. Permanece cerrado los domingos.","lon":-8.71664717191985,"title":"Baño María","type":57,"layer":"restaurantes","phone":"986433907","web":null,"subcategoria":"Restaurante de 1 Tenedor","idpoi":8856,"mp3_uri":null,"lang":"es-ES","lat":42.2354624847196}},{"geometry":{"coordinates":[-8.72563174987855,42.239134667273],"type":"Point"},"type":"Feature","properties":{"tipo":"Cocina gallega","address":"Palma, 5","image_uri":"http://www.turismodevigo.org/sites/turismodevigo/files/res124.jpg","postcode":"36202","description":"Restuarante acogedor situado en pleno casco viejo de Vigo","lon":-8.72563174987855,"title":"La Comidilla","type":7,"layer":"restaurantes","phone":"986431143","web":"www.xente.mundo-r.com/julencan/publi/comidilla/","subcategoria":"Restaurante de 1 Tenedor","idpoi":8857,"mp3_uri":null,"lang":"es-ES","lat":42.239134667273}},{"geometry":{"coordinates":[-8.72616491793941,42.240006041724],"type":"Point"},"type":"Feature","properties":{"tipo":"Cocina española","address":"Teófilo Llorente, 2","image_uri":"http://www.turismodevigo.org/sites/turismodevigo/files/res125.jpg","postcode":"36202","description":"Tiene capacidad para 30 comensales.","lon":-8.72616491793941,"title":"La Espuela","type":57,"layer":"restaurantes","phone":"986437307","web":null,"subcategoria":"Restaurante de 1 Tenedor","idpoi":8858,"mp3_uri":null,"lang":"es-ES","lat":42.240006041724}},{"geometry":{"coordinates":[-8.70891888712709,42.1769723895796],"type":"Point"},"type":"Feature","properties":{"tipo":"Cocina española","address":"Políg. Tecn. Valladares, rúa C6","image_uri":"http://www.turismodevigo.org/sites/turismodevigo/files/res109.jpg","postcode":"36312","description":"Tiene capacidad para 153 comensales.","lon":-8.70891888712709,"title":"Habemus Tex","type":57,"layer":"restaurantes","phone":"986246788","web":null,"subcategoria":"Restaurante de 1 Tenedor","idpoi":8846,"mp3_uri":null,"lang":"es-ES","lat":42.1769723895796}},{"geometry":{"coordinates":[-8.71630792289352,42.2375907759014],"type":"Point"},"type":"Feature","properties":{"tipo":"Otros","address":"Oporto, 13","image_uri":"http://www.turismodevigo.org/sites/turismodevigo/files/res110.jpg","postcode":"36201","description":"Tiene capacidad para 80 comensales.","lon":-8.71630792289352,"title":"Hong Kong","type":10,"layer":"restaurantes","phone":"986128846","web":null,"subcategoria":"Restaurante de 2 Tenedores","idpoi":8847,"mp3_uri":null,"lang":"es-ES","lat":42.2375907759014}},{"geometry":{"coordinates":[-8.72713357398549,42.2389915510338],"type":"Point"},"type":"Feature","properties":{"tipo":"Cocina española","address":"Real, 7","image_uri":"http://www.turismodevigo.org/sites/turismodevigo/files/res096.jpg","postcode":"36202","description":"Tiene capacidad para 33 comensales.","lon":-8.72713357398549,"title":"Fai Bistes","type":57,"layer":"restaurantes","phone":"986229204","web":"www.restaurantefaibistes.com","subcategoria":"Restaurante de 1 Tenedor","idpoi":8835,"mp3_uri":null,"lang":"es-ES","lat":42.2389915510338}},{"geometry":{"coordinates":[-8.74516823969712,42.2189635302411],"type":"Point"},"type":"Feature","properties":{"tipo":"Cocina española","address":"Avda. Castelao, s/n","image_uri":"http://www.turismodevigo.org/sites/turismodevigo/files/res097.jpg","postcode":"36209","description":"Tiene capacidad para 290 comensales.","lon":-8.74516823969712,"title":"Flunch","type":57,"layer":"restaurantes","phone":"986201924","web":"www.flunch.es/restaurante-vigo1.php","subcategoria":"Restaurante de 1 Tenedor","idpoi":8836,"mp3_uri":null,"lang":"es-ES","lat":42.2189635302411}},{"geometry":{"coordinates":[-8.70160777345768,42.2155671453105],"type":"Point"},"type":"Feature","properties":{"tipo":"Cocina española","address":"Avda. Madrid. C.C. Alcampo s/n","image_uri":"http://www.turismodevigo.org/sites/turismodevigo/files/res098.jpg","postcode":"36214","description":"Tiene capacidad para 210 comensales.","lon":-8.70160777345768,"title":"Flunch.2","type":57,"layer":"restaurantes","phone":"986471261","web":"www.flunch.es/restaurante-vigo2.php","subcategoria":"Restaurante de 1 Tenedor","idpoi":8837,"mp3_uri":null,"lang":"es-ES","lat":42.2155671453105}},{"geometry":{"coordinates":[-8.71274389971415,42.2376908636225],"type":"Point"},"type":"Feature","properties":{"tipo":"Cocina española","address":"Serafín Avendaño, 10","image_uri":null,"postcode":"36201","description":"Tiene capacidad para 29 comensales. Permanece cerrado los domingos.","lon":-8.71274389971415,"title":"Follas Novas","type":57,"layer":"restaurantes","phone":"986229306","web":"http://follasnovas.atagalicia.com/nosotros/","subcategoria":"Restaurante de 1 Tenedor","idpoi":8838,"mp3_uri":null,"lang":"es-ES","lat":42.2376908636225}},{"geometry":{"coordinates":[-8.68438572981408,42.2202398692746],"type":"Point"},"type":"Feature","properties":{"tipo":"Cocina española","address":"Avda. Madrid (Sabaxans), 119","image_uri":"http://www.turismodevigo.org/sites/turismodevigo/files/res100.jpg","postcode":"36214","description":"Tiene capacidad para 38 comensales. Permanece cerrado los domingos.","lon":-8.68438572981408,"title":"A Fontefría","type":57,"layer":"restaurantes","phone":"986251318","web":null,"subcategoria":"Restaurante de 1 Tenedor","idpoi":8839,"mp3_uri":null,"lang":"es-ES","lat":42.2202398692746}},{"geometry":{"coordinates":[-8.7235856382806,42.2213284402302],"type":"Point"},"type":"Feature","properties":{"tipo":"Otros","address":"Rúa do Miradoiro, 2 (Centro Comercial Gran Vía)","image_uri":"http://www.turismodevigo.org/sites/turismodevigo/files/res102.jpg","postcode":"36210","description":"Cadena de restaurantes de comida americana en España. Especializado en comida rápida.","lon":-8.7235856382806,"title":"Foster's Hollewood","type":10,"layer":"restaurantes","phone":"986471343","web":"www.fostershollewood.es","subcategoria":"Restaurante de 1 Tenedor","idpoi":8840,"mp3_uri":null,"lang":"es-ES","lat":42.2213284402302}},{"geometry":{"coordinates":[-8.7259181075223,42.2361347744214],"type":"Point"},"type":"Feature","properties":{"tipo":"Otros","address":"Placer, 4","image_uri":"http://www.turismodevigo.org/sites/turismodevigo/files/res104.jpg","postcode":"36202","description":"Tiene capacidad para 16 comensales. Permanece cerrado los domingos e los lunes.","lon":-8.7259181075223,"title":"Gálgala","type":10,"layer":"restaurantes","phone":"986221417","web":"www.galgala.es","subcategoria":"Restaurante de 1 Tenedor","idpoi":8841,"mp3_uri":null,"lang":"es-ES","lat":42.2361347744214}},{"geometry":{"coordinates":[-8.72571998712975,42.2384190833704],"type":"Point"},"type":"Feature","properties":{"tipo":"Cocina española","address":"Praza Princesa, 4","image_uri":"http://www.turismodevigo.org/sites/turismodevigo/files/res105.jpg","postcode":"36202","description":"Tiene capacidad para 16 comensales. Permanece cerrado los domingos.","lon":-8.72571998712975,"title":"Gazpara","type":57,"layer":"restaurantes","phone":"986227639","web":null,"subcategoria":"Restaurante de 1 Tenedor","idpoi":8842,"mp3_uri":null,"lang":"es-ES","lat":42.2384190833704}},{"geometry":{"coordinates":[-8.73453813305052,42.2229704315151],"type":"Point"},"type":"Feature","properties":{"tipo":"Cocina española","address":"Coruña, 40","image_uri":"http://www.turismodevigo.org/sites/turismodevigo/files/res106.jpg","postcode":"36208","description":"Tiene capacidad para 40 comensales.","lon":-8.73453813305052,"title":"Gonco","type":57,"layer":"restaurantes","phone":"986202224","web":null,"subcategoria":"Restaurante de 1 Tenedor","idpoi":8843,"mp3_uri":null,"lang":"es-ES","lat":42.2229704315151}},{"geometry":{"coordinates":[-8.77026419183628,42.1947041372346],"type":"Point"},"type":"Feature","properties":{"tipo":"Cocina española","address":"A Longra s/n","image_uri":"http://www.turismodevigo.org/sites/turismodevigo/files/res107.jpg","postcode":"36330","description":"Tiene capacidad para 12 comensales.","lon":-8.77026419183628,"title":"Gran Chaparral","type":57,"layer":"restaurantes","phone":"986290388","web":null,"subcategoria":"Restaurante de 1 Tenedor","idpoi":8844,"mp3_uri":null,"lang":"es-ES","lat":42.1947041372346}},{"geometry":{"coordinates":[-8.72991578210356,42.2264767108271],"type":"Point"},"type":"Feature","properties":{"tipo":"Otros","address":"Av. Camelias, 88","image_uri":"http://www.turismodevigo.org/sites/turismodevigo/files/res108.jpg","postcode":"36211","description":"Tiene capacidad para 70 comensales.","lon":-8.72991578210356,"title":"Gran Muralla","type":10,"layer":"restaurantes","phone":"986297684","web":null,"subcategoria":"Restaurante de 2 Tenedores","idpoi":8845,"mp3_uri":null,"lang":"es-ES","lat":42.2264767108271}},{"geometry":{"coordinates":[-8.76325612483981,42.2140692426756],"type":"Point"},"type":"Feature","properties":{"tipo":"Cocina gallega","address":"Av. Europa, 43","image_uri":"http://www.turismodevigo.org/sites/turismodevigo/files/res024.jpg","postcode":"36212","description":"Acogedor restaurante donde se puede degustar los pratos más típicos de la comida gallega.","lon":-8.76325612483981,"title":"Casa Bravo","type":7,"layer":"restaurantes","phone":"986241296","web":null,"subcategoria":"Restaurante de 1 Tenedor","idpoi":8776,"mp3_uri":null,"lang":"es-ES","lat":42.2140692426756}},{"geometry":{"coordinates":[-8.6808901344487,42.1990518495598],"type":"Point"},"type":"Feature","properties":{"tipo":"Asador","address":"Chans nº2, Bembrive","image_uri":"http://www.turismodevigo.org/sites/turismodevigo/files/res023.jpg","postcode":"36313","description":"Nuestras instalaciones gozan de unas espléndidas vistas a la ría.","lon":-8.6808901344487,"title":"Asador Soriano","type":58,"layer":"restaurantes","phone":"986481373","web":"www.asadorsoriano.com","subcategoria":"Restaurante de 2 Tenedores","idpoi":8775,"mp3_uri":null,"lang":"es-ES","lat":42.1990518495598}},{"geometry":{"coordinates":[-8.71541476708441,42.2374638155563],"type":"Point"},"type":"Feature","properties":{"tipo":"Asador","address":"Heraclio Botana, 3. Baixo","image_uri":"http://www.turismodevigo.org/sites/turismodevigo/files/res022.jpg","postcode":"36201","description":"Tiene capacidad para 60 comensales.","lon":-8.71541476708441,"title":"Asador Siglo XXI","type":58,"layer":"restaurantes","phone":"986431344","web":null,"subcategoria":"Restaurante de 1 Tenedor","idpoi":8774,"mp3_uri":null,"lang":"es-ES","lat":42.2374638155563}},{"geometry":{"coordinates":[-8.76352415086794,42.2001904973689],"type":"Point"},"type":"Feature","properties":{"tipo":"Asador","address":"Carretera Molinos, 19","image_uri":"http://www.turismodevigo.org/sites/turismodevigo/files/res021.jpg","postcode":"36213","description":"Tiene capacidad para 76 comensales.","lon":-8.76352415086794,"title":"Asador Os Muiños","type":58,"layer":"restaurantes","phone":"986208137","web":null,"subcategoria":"Restaurante de 1 Tenedor","idpoi":8773,"mp3_uri":null,"lang":"es-ES","lat":42.2001904973689}},{"geometry":{"coordinates":[-8.78941934207955,42.197332545692],"type":"Point"},"type":"Feature","properties":{"tipo":"Cocina española","address":"O Vao, s/n","image_uri":"http://www.turismodevigo.org/sites/turismodevigo/files/res025.jpg","postcode":"36201","description":"Tiene capacidad para 75 comensales.","lon":-8.78941934207955,"title":"Bao","type":57,"layer":"restaurantes","phone":"986491016","web":null,"subcategoria":"Restaurante de 1 Tenedor","idpoi":8777,"mp3_uri":null,"lang":"es-ES","lat":42.197332545692}},{"geometry":{"coordinates":[-8.72171690776223,42.2281363184855],"type":"Point"},"type":"Feature","properties":{"tipo":"Cocina española","address":"Barcelona, 5","image_uri":"http://www.turismodevigo.org/sites/turismodevigo/files/res027.jpg","postcode":"36203","description":"Lleva más de 50 años ofreciendo los mejores menús de comida casera en la zona de Vigo. Dispone de salón privada e terraza exterior.","lon":-8.72171690776223,"title":"Barcelona","type":57,"layer":"restaurantes","phone":"986410392","web":"www.mesonbarcelona.es","subcategoria":"Restaurante de 1 Tenedor","idpoi":8778,"mp3_uri":null,"lang":"es-ES","lat":42.2281363184855}},{"geometry":{"coordinates":[-8.71801449838837,42.1953320835549],"type":"Point"},"type":"Feature","properties":{"tipo":"Cocina española","address":"Ramiro Pascual","image_uri":"http://www.turismodevigo.org/sites/turismodevigo/files/res028.jpg","postcode":"36312","description":"Tiene capacidad para 24 comensales.","lon":-8.71801449838837,"title":"Barranco","type":57,"layer":"restaurantes","phone":"986205681","web":null,"subcategoria":"Restaurante de 1 Tenedor","idpoi":8779,"mp3_uri":null,"lang":"es-ES","lat":42.1953320835549}},{"geometry":{"coordinates":[-8.71944659285637,42.2381650846696],"type":"Point"},"type":"Feature","properties":{"tipo":"Cocina española","address":"Rosalía de Castro, 6","image_uri":"http://www.turismodevigo.org/sites/turismodevigo/files/res029.jpg","postcode":"36201","description":"Especialidad en comida italiana.","lon":-8.71944659285637,"title":"La Aldeana","type":57,"layer":"restaurantes","phone":"986222214","web":null,"subcategoria":"Restaurante de 1 Tenedor","idpoi":8780,"mp3_uri":null,"lang":"es-ES","lat":42.2381650846696}},{"geometry":{"coordinates":[-8.70732677179642,42.2306798594452],"type":"Point"},"type":"Feature","properties":{"tipo":"Cocina española","address":"Gregorio Espino, 14","image_uri":"http://www.turismodevigo.org/sites/turismodevigo/files/res030.jpg","postcode":"36205","description":"Tiene capacidad para 600 comensales.","lon":-8.70732677179642,"title":"Bingo Costa Verde","type":57,"layer":"restaurantes","phone":"986272200","web":null,"subcategoria":"Restaurante de 1 Tenedor","idpoi":8781,"mp3_uri":null,"lang":"es-ES","lat":42.2306798594452}},{"geometry":{"coordinates":[-8.71777756103909,42.2341357742837],"type":"Point"},"type":"Feature","properties":{"tipo":"Cocina de autor","address":"Ecuador, 56","image_uri":"http://www.turismodevigo.org/sites/turismodevigo/files/res031.jpg","postcode":"36203","description":"Un lugar donde se compagina la cocina tradicional con las nuevas experiencias capaces de satisfacer los paladares más exigentes.","lon":-8.71777756103909,"title":"Bitadorna Vigo","type":59,"layer":"restaurantes","phone":"986136951","web":"www.bitadorna.com","subcategoria":"Restaurante de 2 Tenedores","idpoi":8782,"mp3_uri":null,"lang":"es-ES","lat":42.2341357742837}},{"geometry":{"coordinates":[-8.70670376773715,42.234348152023],"type":"Point"},"type":"Feature","properties":{"tipo":"Cocina española","address":"Vía Norte, 68-70","image_uri":"http://www.turismodevigo.org/sites/turismodevigo/files/res032.jpg","postcode":"36206","description":"Tiene capacidad para 56 comensales.","lon":-8.70670376773715,"title":"Bodegón do Pulpo","type":57,"layer":"restaurantes","phone":"986253614","web":"www.bodegondopulpo.com","subcategoria":"Restaurante de 1 Tenedor","idpoi":8783,"mp3_uri":null,"lang":"es-ES","lat":42.234348152023}},{"geometry":{"coordinates":[-8.76374039995429,42.1976584392838],"type":"Point"},"type":"Feature","properties":{"tipo":"Cocina española","address":"Camposancos, 119","image_uri":"http://www.turismodevigo.org/sites/turismodevigo/files/res020.jpg","postcode":"36213","description":"Tiene capacidad para 34 comensales.","lon":-8.76374039995429,"title":"As Naves","type":57,"layer":"restaurantes","phone":"986236030","web":null,"subcategoria":"Restaurante de 1 Tenedor","idpoi":8772,"mp3_uri":null,"lang":"es-ES","lat":42.1976584392838}},{"geometry":{"coordinates":[-8.80320718350963,42.185926066536],"type":"Point"},"type":"Feature","properties":{"tipo":"Cocina española","address":"Camiño Verdella, 5","image_uri":"http://www.turismodevigo.org/sites/turismodevigo/files/res019.jpg","postcode":"36390","description":"Tiene capacidad para 30 comensales.","lon":-8.80320718350963,"title":"As Grades","type":57,"layer":"restaurantes","phone":"986490478","web":"www.restauranteasgrades.com","subcategoria":"Restaurante de 1 Tenedor","idpoi":8771,"mp3_uri":null,"lang":"es-ES","lat":42.185926066536}},{"geometry":{"coordinates":[-8.75283499894529,42.2251324172072],"type":"Point"},"type":"Feature","properties":{"tipo":"Cocina española","address":"Eduardo Cabello, 17","image_uri":"http://www.turismodevigo.org/sites/turismodevigo/files/res004.jpg","postcode":"36208","description":"Empanadas Caseras, Bogavante con Arro,z Caldereta de Pescado, buenos Vinos de la Casa, Condados e Albariños.","lon":-8.75283499894529,"title":"A Gavela","type":57,"layer":"restaurantes","phone":"986207600","web":null,"subcategoria":"Restaurante de 1 Tenedor","idpoi":8760,"mp3_uri":null,"lang":"es-ES","lat":42.2251324172072}},{"geometry":{"coordinates":[-8.75116397034981,42.2068669307131],"type":"Point"},"type":"Feature","properties":{"tipo":"Cocina española","address":"Avda. da Florida, 357","image_uri":"http://www.turismodevigo.org/sites/turismodevigo/files/res007.jpg","postcode":"36213","description":"Tiene capacidad para 24 comensales. Permanece cerrado los martes.","lon":-8.75116397034981,"title":"A Ponte","type":57,"layer":"restaurantes","phone":"986201421","web":null,"subcategoria":"Restaurante de 1 Tenedor","idpoi":8762,"mp3_uri":null,"lang":"es-ES","lat":42.2068669307131}},{"geometry":{"coordinates":[-8.75110620892929,42.2075274811663],"type":"Point"},"type":"Feature","properties":{"tipo":"Cocina española","address":"Av. de Florida, 150","image_uri":"http://www.turismodevigo.org/sites/turismodevigo/files/res008.jpg","postcode":"36210","description":"Tradición e cultura argentina en un asador gallego.","lon":-8.75110620892929,"title":"A Roda","type":57,"layer":"restaurantes","phone":"986294683","web":"www.aroda.com","subcategoria":"Restaurante de 2 Tenedores","idpoi":8763,"mp3_uri":null,"lang":"es-ES","lat":42.2075274811663}},{"geometry":{"coordinates":[-8.76791317604665,42.2001113716884],"type":"Point"},"type":"Feature","properties":{"tipo":"Cocina española","address":"Ricardo Mella, 107","image_uri":"http://www.turismodevigo.org/sites/turismodevigo/files/res009.jpg","postcode":"36213","description":"Especialidad en asado de carnes.","lon":-8.76791317604665,"title":"Komo en Kasa de Lola","type":57,"layer":"restaurantes","phone":"986238830","web":null,"subcategoria":"Restaurante de 1 Tenedor","idpoi":8764,"mp3_uri":null,"lang":"es-ES","lat":42.2001113716884}},{"geometry":{"coordinates":[-8.72422442978063,42.2327253409276],"type":"Point"},"type":"Feature","properties":{"tipo":"Cocina española","address":"Celso Emilio Ferreiro, 11","image_uri":"http://www.turismodevigo.org/sites/turismodevigo/files/res010.jpg","postcode":"36203","description":"Tiene capacidad para 33 comensales. Permanece cerrado los lunes.","lon":-8.72422442978063,"title":"A Videira","type":57,"layer":"restaurantes","phone":"986412787","web":null,"subcategoria":"Restaurante de 1 Tenedor","idpoi":8765,"mp3_uri":null,"lang":"es-ES","lat":42.2327253409276}},{"geometry":{"coordinates":[-8.72846815370208,42.2240358246082],"type":"Point"},"type":"Feature","properties":{"tipo":"Cocina española","address":"Salamanca, 2","image_uri":"http://www.turismodevigo.org/sites/turismodevigo/files/res012.jpg","postcode":"36211","description":"Tiene capacidad para 33 comensales. Permanece cerrado los domingos.","lon":-8.72846815370208,"title":"Abuelo Albino","type":57,"layer":"restaurantes","phone":"986482089","web":null,"subcategoria":"Restaurante de 1 Tenedor","idpoi":8766,"mp3_uri":null,"lang":"es-ES","lat":42.2240358246082}},{"geometry":{"coordinates":[-8.70821454978346,42.2308911149409],"type":"Point"},"type":"Feature","properties":{"tipo":"Cocina gallega","address":"Talude, 3","image_uri":"http://www.turismodevigo.org/sites/turismodevigo/files/res018.jpg","postcode":"36205","description":"Tiene capacidad para 30 comensales.","lon":-8.70821454978346,"title":"As Cangas","type":7,"layer":"restaurantes","phone":"986281607","web":"www.sidreriaascangas.com","subcategoria":"Restaurante de 1 Tenedor","idpoi":8770,"mp3_uri":null,"lang":"es-ES","lat":42.2308911149409}},{"geometry":{"coordinates":[-8.74098591210982,42.2136828801566],"type":"Point"},"type":"Feature","properties":{"tipo":"Cocina gallega","address":"Manuel de Castro, 9","image_uri":"http://www.turismodevigo.org/sites/turismodevigo/files/res036.jpg","postcode":"36210","description":"Especialidad en comida casera e todo tipo de arroces. Permanece cerrado los domingos e los lunes por la noche.","lon":-8.74098591210982,"title":"Dalhaisal","type":7,"layer":"restaurantes","phone":"986244329","web":null,"subcategoria":"Restaurante de 1 Tenedor","idpoi":8787,"mp3_uri":null,"lang":"es-ES","lat":42.2136828801566}},{"geometry":{"coordinates":[-8.72578398335664,42.2398092639837],"type":"Point"},"type":"Feature","properties":{"tipo":"Marisquería","address":"Pescadería, 4","image_uri":"http://www.turismodevigo.org/sites/turismodevigo/files/res033.jpg","postcode":"36875","description":"Tiene capacidad para 32 comensales.","lon":-8.72578398335664,"title":"Bogavante","type":60,"layer":"restaurantes","phone":"986227264","web":null,"subcategoria":"Restaurante de 1 Tenedor","idpoi":8784,"mp3_uri":null,"lang":"es-ES","lat":42.2398092639837}},{"geometry":{"coordinates":[-8.80180923336492,42.1822734051812],"type":"Point"},"type":"Feature","properties":{"tipo":"Cocina española","address":"Igrexa Roteas, 4","image_uri":null,"postcode":"36201","description":"Tiene capacidad para 60 comensales.","lon":-8.80180923336492,"title":"Casa Manel","type":57,"layer":"restaurantes","phone":"986460228","web":null,"subcategoria":"Restaurante de 1 Tenedor","idpoi":8799,"mp3_uri":null,"lang":"es-ES","lat":42.1822734051812}},{"geometry":{"coordinates":[-8.71047448156997,42.2382945308089],"type":"Point"},"type":"Feature","properties":{"tipo":"Cocina española","address":"Avda. García Barbón, nº 123 bajo","image_uri":"http://www.turismodevigo.org/sites/turismodevigo/files/res052.jpg","postcode":"36201","description":"Tiene capacidad para 48 comensales.","lon":-8.71047448156997,"title":"Casa Marco","type":57,"layer":"restaurantes","phone":"986225110","web":null,"subcategoria":"Restaurante de 1 Tenedor","idpoi":8800,"mp3_uri":null,"lang":"es-ES","lat":42.2382945308089}},{"geometry":{"coordinates":[-8.71155203373478,42.2307724568007],"type":"Point"},"type":"Feature","properties":{"tipo":"Cocina española","address":"Colombia, 11","image_uri":"http://www.turismodevigo.org/sites/turismodevigo/files/res053.jpg","postcode":"36204","description":"Tiene capacidad para 50 comensales.","lon":-8.71155203373478,"title":"Casa Pepe","type":57,"layer":"restaurantes","phone":"986419617","web":null,"subcategoria":"Restaurante de 1 Tenedor","idpoi":8801,"mp3_uri":null,"lang":"es-ES","lat":42.2307724568007}},{"geometry":{"coordinates":[-8.74112825828907,42.2236538361563],"type":"Point"},"type":"Feature","properties":{"tipo":"Cocina española","address":"Travesía Barciela, 5","image_uri":"http://www.turismodevigo.org/sites/turismodevigo/files/res054.jpg","postcode":"36208","description":"Tiene capacidad para 20 comensales.","lon":-8.74112825828907,"title":"Casa Ramón","type":57,"layer":"restaurantes","phone":"986233126","web":null,"subcategoria":"Restaurante de 1 Tenedor","idpoi":8802,"mp3_uri":null,"lang":"es-ES","lat":42.2236538361563}},{"geometry":{"coordinates":[-8.71638176477986,42.2382384255368],"type":"Point"},"type":"Feature","properties":{"tipo":"Cocina española","address":"Oporto, 9","image_uri":"http://www.turismodevigo.org/sites/turismodevigo/files/res055.jpg","postcode":"36201","description":"Tiene capacidad para 25 comensales. Permanece cerrado los domingos.","lon":-8.71638176477986,"title":"Casa Sánchez","type":57,"layer":"restaurantes","phone":"986225032","web":null,"subcategoria":"Restaurante de 1 Tenedor","idpoi":8803,"mp3_uri":null,"lang":"es-ES","lat":42.2382384255368}},{"geometry":{"coordinates":[-8.72076270159845,42.2348401588391],"type":"Point"},"type":"Feature","properties":{"tipo":"Cocina española","address":"Manuel Núñez, 8","image_uri":"http://www.turismodevigo.org/sites/turismodevigo/files/res056.jpg","postcode":"36203","description":"Especialidades en comida tradicional gallega. Tiene capacidad para 40 comensales. Permanece cerrado los domingos.","lon":-8.72076270159845,"title":"Casa Soutomaeor","type":57,"layer":"restaurantes","phone":"986229547","web":"www.soutomaeor.atagalicia.com","subcategoria":"Restaurante de 1 Tenedor","idpoi":8804,"mp3_uri":null,"lang":"es-ES","lat":42.2348401588391}},{"geometry":{"coordinates":[-8.6961083310746,42.2417957475396],"type":"Point"},"type":"Feature","properties":{"tipo":"Cocina española","address":"Troncal - Nave Cash Record s/n","image_uri":"http://www.turismodevigo.org/sites/turismodevigo/files/res057.jpg","postcode":"36207","description":"Tiene capacidad para 40 comensales.","lon":-8.6961083310746,"title":"Casa Villamandos","type":57,"layer":"restaurantes","phone":"986263256","web":null,"subcategoria":"Restaurante de 1 Tenedor","idpoi":8805,"mp3_uri":null,"lang":"es-ES","lat":42.2417957475396}},{"geometry":{"coordinates":[-8.72570794782944,42.2398556914793],"type":"Point"},"type":"Feature","properties":{"tipo":"Cocina gallega","address":"Pescadería, 1, bajo derecha","image_uri":"http://www.turismodevigo.org/sites/turismodevigo/files/res058.jpg","postcode":"36202","description":"Tiene capacidad para 30 comensales.","lon":-8.72570794782944,"title":"Casavella","type":7,"layer":"restaurantes","phone":"986227244","web":"www.restaurantecasavella.com","subcategoria":"Restaurante de 1 Tenedor","idpoi":8806,"mp3_uri":null,"lang":"es-ES","lat":42.2398556914793}},{"geometry":{"coordinates":[-8.71019089334244,42.2345074575488],"type":"Point"},"type":"Feature","properties":{"tipo":"Cocina gallega","address":"Vía Norte, 40","image_uri":"http://www.turismodevigo.org/sites/turismodevigo/files/res059.jpg","postcode":"36204","description":"Tiene capacidad para 75 comensales.","lon":-8.71019089334244,"title":"Central Pork","type":7,"layer":"restaurantes","phone":"986410843","web":null,"subcategoria":"Restaurante de 1 Tenedor","idpoi":8807,"mp3_uri":null,"lang":"es-ES","lat":42.2345074575488}},{"geometry":{"coordinates":[-8.720638,42.234811],"type":"Point"},"type":"Feature","properties":{"tipo":"Cocina española","address":"Manuel Núñez","image_uri":"http://www.turismodevigo.org/sites/turismodevigo/files/res060.jpg","postcode":"36203","description":"Tiene capacidad para 72 comensales.","lon":-8.720638,"title":"Centro","type":57,"layer":"restaurantes","phone":"986220929","web":null,"subcategoria":"Restaurante de 1 Tenedor","idpoi":8808,"mp3_uri":null,"lang":"es-ES","lat":42.234811}},{"geometry":{"coordinates":[-8.72164193466223,42.2262233444803],"type":"Point"},"type":"Feature","properties":{"tipo":"Otros","address":"Avda. Gran Vía 90, baixo","image_uri":"http://www.turismodevigo.org/sites/turismodevigo/files/res050.jpg","postcode":"36203","description":"Tiene capacidad para 84 comensales.","lon":-8.72164193466223,"title":"Casa Hong","type":10,"layer":"restaurantes","phone":"986421522","web":null,"subcategoria":"Restaurante de 1 Tenedor","idpoi":8798,"mp3_uri":null,"lang":"es-ES","lat":42.2262233444803}},{"geometry":{"coordinates":[-8.71527999945408,42.233459209843],"type":"Point"},"type":"Feature","properties":{"tipo":"Cocina española","address":"México, 12-Bajo","image_uri":"http://www.turismodevigo.org/sites/turismodevigo/files/res049.jpg","postcode":"36204","description":"Tiene capacidad para 21 comensales. Permanece cerrado los domingos.","lon":-8.71527999945408,"title":"Casa Dalmiro","type":57,"layer":"restaurantes","phone":"986138186","web":"www.casadalmiro.es","subcategoria":"Restaurante de 1 Tenedor","idpoi":8797,"mp3_uri":null,"lang":"es-ES","lat":42.233459209843}},{"geometry":{"coordinates":[-8.716754,42.238881],"type":"Point"},"type":"Feature","properties":{"tipo":"Cocina española","address":"Oporto, 2","image_uri":"http://www.turismodevigo.org/sites/turismodevigo/files/res046.jpg","postcode":"36201","description":"Tiene capacidad para 12 comensales.","lon":-8.716754,"title":"Casa Bonin","type":57,"layer":"restaurantes","phone":"986439197","web":null,"subcategoria":"Restaurante de 1 Tenedor","idpoi":8796,"mp3_uri":null,"lang":"es-ES","lat":42.238881}},{"geometry":{"coordinates":[-8.70018740483114,42.2289594664037],"type":"Point"},"type":"Feature","properties":{"tipo":"Cocina española","address":"Burgos, 46","image_uri":"http://www.turismodevigo.org/sites/turismodevigo/files/res034.jpg","postcode":"36205","description":"Tiene capacidad para 33 comensales. Permanece cerrado los martes.","lon":-8.70018740483114,"title":"Borsalino","type":57,"layer":"restaurantes","phone":"986373429","web":null,"subcategoria":"Restaurante de 1 Tenedor","idpoi":8785,"mp3_uri":null,"lang":"es-ES","lat":42.2289594664037}},{"geometry":{"coordinates":[-8.6389118341247,42.2234803517346],"type":"Point"},"type":"Feature","properties":{"tipo":"Cocina española","address":"Avda. del Aeropuerto, 772","image_uri":"http://www.turismodevigo.org/sites/turismodevigo/files/res035.jpg","postcode":"36318","description":"Tiene capacidad para 507 comensales.","lon":-8.6389118341247,"title":"Botón de Ancla","type":57,"layer":"restaurantes","phone":"986269910","web":null,"subcategoria":"Restaurante de 2 Tenedores","idpoi":8786,"mp3_uri":null,"lang":"es-ES","lat":42.2234803517346}},{"geometry":{"coordinates":[-8.75145640003669,42.224717404421],"type":"Point"},"type":"Feature","properties":{"tipo":"Cocina española","address":"Covadonga, 9","image_uri":"http://www.turismodevigo.org/sites/turismodevigo/files/res037.jpg","postcode":"36208","description":"Tiene capacidad para 32 comensales.","lon":-8.75145640003669,"title":"Buraquiño","type":57,"layer":"restaurantes","phone":"986237227","web":null,"subcategoria":"Restaurante de 1 Tenedor","idpoi":8788,"mp3_uri":null,"lang":"es-ES","lat":42.224717404421}},{"geometry":{"coordinates":[-8.79651050054583,42.1938570717259],"type":"Point"},"type":"Feature","properties":{"tipo":"Cocina española","address":"Canido Praia, 151","image_uri":"http://www.turismodevigo.org/sites/turismodevigo/files/res038.jpg","postcode":"36202","description":"Tiene capacidad para 14 comensales.","lon":-8.79651050054583,"title":"Camping Canido","type":57,"layer":"restaurantes","phone":"986462072","web":"www.campingcanido.es","subcategoria":"Restaurante de 1 Tenedor","idpoi":8789,"mp3_uri":null,"lang":"es-ES","lat":42.1938570717259}},{"geometry":{"coordinates":[-8.72939229517806,42.233042875232],"type":"Point"},"type":"Feature","properties":{"tipo":"Cocina española","address":"Avda. Camelias, 18","image_uri":"http://www.turismodevigo.org/sites/turismodevigo/files/res039.jpg","postcode":"36202","description":"Tiene capacidad para 30 comensales.","lon":-8.72939229517806,"title":"Candilejas","type":57,"layer":"restaurantes","phone":"986410894","web":null,"subcategoria":"Restaurante de 1 Tenedor","idpoi":8790,"mp3_uri":null,"lang":"es-ES","lat":42.233042875232}},{"geometry":{"coordinates":[-8.79705834787059,42.1934986660353],"type":"Point"},"type":"Feature","properties":{"tipo":"Cocina española","address":"Canido-Plaea, 189","image_uri":"http://www.turismodevigo.org/sites/turismodevigo/files/res040.jpg","postcode":"36390","description":"Tiene capacidad para 30 comensales. Permanece cerrado los lunes.","lon":-8.79705834787059,"title":"Canto da Area","type":57,"layer":"restaurantes","phone":"986460540","web":null,"subcategoria":"Restaurante de 1 Tenedor","idpoi":8791,"mp3_uri":null,"lang":"es-ES","lat":42.1934986660353}},{"geometry":{"coordinates":[-8.71916989960344,42.2381225994982],"type":"Point"},"type":"Feature","properties":{"tipo":"Cocina española","address":"Rosalía de Castro, 8","image_uri":"http://www.turismodevigo.org/sites/turismodevigo/files/res041.jpg","postcode":"36201","description":"Tiene capacidad para 68 comensales.","lon":-8.71916989960344,"title":"Lagharto Pintado","type":57,"layer":"restaurantes","phone":"986108858","web":null,"subcategoria":"Restaurante de 1 Tenedor","idpoi":8792,"mp3_uri":null,"lang":"es-ES","lat":42.2381225994982}},{"geometry":{"coordinates":[-8.75889287285635,42.22175164182],"type":"Point"},"type":"Feature","properties":{"tipo":"Cocina española","address":"Avda. Atlántica, 66","image_uri":"http://www.turismodevigo.org/sites/turismodevigo/files/res043.jpg","postcode":"36208","description":"Tiene capacidad para 44 comensales.","lon":-8.75889287285635,"title":"Carballino","type":57,"layer":"restaurantes","phone":"986240698","web":null,"subcategoria":"Restaurante de 1 Tenedor","idpoi":8793,"mp3_uri":null,"lang":"es-ES","lat":42.22175164182}},{"geometry":{"coordinates":[-8.72912510797519,42.2374329104977],"type":"Point"},"type":"Feature","properties":{"tipo":"Marisquería","address":"Ribeira do Berbés, 25 bajo","image_uri":"http://www.turismodevigo.org/sites/turismodevigo/files/res044.jpg","postcode":"36202","description":"Tiene capacidad para 32 comensales.","lon":-8.72912510797519,"title":"O Pescador","type":60,"layer":"restaurantes","phone":"986223068","web":"www.o-pescador.com","subcategoria":"Restaurante de 1 Tenedor","idpoi":8794,"mp3_uri":null,"lang":"es-ES","lat":42.2374329104977}},{"geometry":{"coordinates":[-8.72856367515771,42.2384881598575],"type":"Point"},"type":"Feature","properties":{"tipo":"Cocina española","address":"Real, 40","image_uri":null,"postcode":"36202","description":"Tiene capacidad para 20 comensales.","lon":-8.72856367515771,"title":"Casa Antonio","type":57,"layer":"restaurantes","phone":"986223052","web":null,"subcategoria":"Restaurante de 2 Tenedores","idpoi":8795,"mp3_uri":null,"lang":"es-ES","lat":42.2384881598575}},{"geometry":{"coordinates":[-8.8028232947204,42.1808613441892],"type":"Point"},"type":"Feature","properties":{"tipo":"Cocina española","address":"Avda. Cesáreo Vázquez, 63","image_uri":"http://www.turismodevigo.org/sites/turismodevigo/files/res003.jpg","postcode":"36390","description":"Tapas variadas, arroces, mariscos, carnes, pescados.","lon":-8.8028232947204,"title":"A Bodega de San Miguel","type":57,"layer":"restaurantes","phone":"986490481","web":null,"subcategoria":"Restaurante de 1 Tenedor","idpoi":8759,"mp3_uri":null,"lang":"es-ES","lat":42.1808613441892}},{"geometry":{"coordinates":[-8.75612636728697,42.2194140610455],"type":"Point"},"type":"Feature","properties":{"tipo":"Asador","address":"Pardiña, 48","image_uri":"http://www.turismodevigo.org/sites/turismodevigo/files/res084.jpg","postcode":"36208","description":"Parrillada especializada en carnes argentinas.","lon":-8.75612636728697,"title":"Asador El Buche","type":58,"layer":"restaurantes","phone":"633569036","web":"https://www.facebook.com/Asador-El-Buche-168164673846913/","subcategoria":"Restaurante de 1 Tenedor","idpoi":8825,"mp3_uri":null,"lang":"es-ES","lat":42.2194140610455}}],"type":"FeatureCollection"}