{"features":[{"geometry":{"coordinates":[-8.77660320467861,42.2058898594448],"type":"Point"},"type":"Feature","properties":{"address":"Avenida de Samil, 71","image_uri":"http://www.turismodevigo.org/sites/turismodevigo/files/alo050.jpg","postcode":"36212","description":"Conta con 265 prazas.","lon":-8.77660320467861,"title":"Playa Samil","type":22,"layer":"alojamientos","phone":"986240210","web":"www.campingplayasamil.com","subcategoria":"Cámping de 3ª Categoría","idpoi":8278,"mp3_uri":null,"lang":"gl-ES","lat":42.2058898594448}},{"geometry":{"coordinates":[-8.9058324343757,42.2211758867683],"type":"Point"},"type":"Feature","properties":{"address":"Isla del Faro (Islas Cíes)","image_uri":"http://www.turismodevigo.org/sites/turismodevigo/files/alo049.jpg","postcode":"36211","description":"Conta con 800 prazas.","lon":-8.9058324343757,"title":"Islas Cíes","type":22,"layer":"alojamientos","phone":"986438358","web":"www.campingislascies.com","subcategoria":"Cámping de 3ª Categoría","idpoi":8277,"mp3_uri":null,"lang":"gl-ES","lat":42.2211758867683}},{"geometry":{"coordinates":[-8.79608822577247,42.1938599649832],"type":"Point"},"type":"Feature","properties":{"address":"Praia de Canido, nº 151","image_uri":"http://www.turismodevigo.org/sites/turismodevigo/files/alo048.jpg","postcode":"36390","description":"Conta con 152 prazas.","lon":-8.79608822577247,"title":"Canido","type":22,"layer":"alojamientos","phone":"986462072","web":"www.campingcanido.es","subcategoria":"Cámping de 2ª Categoría","idpoi":8276,"mp3_uri":null,"lang":"gl-ES","lat":42.1938599649832}}],"type":"FeatureCollection"}