{"features":[{"geometry":{"coordinates":[-8.715151126775822,42.235224070922],"type":"Point"},"type":"Feature","properties":{"address":"Alfonso XIII, 17-19","image_uri":"http://www.turismodevigo.org/sites/turismodevigo/files/alo002.jpg","postcode":"36201","description":"Céntrico e acolledor hotel de Vigo, na provincia de Pontevedra, o Hotel Recamar é un confortable establecemento que lle permitirá disfrutar dunha agradable estancia en Vigo.","lon":-8.715151126775822,"title":"Recamar","type":14,"layer":"alojamientos","phone":"986438911","web":"www.recamar.com","subcategoria":"Hotel de 1 estrela","idpoi":8230,"mp3_uri":null,"lang":"gl-ES","lat":42.235224070922}},{"geometry":{"coordinates":[-8.70890742159952,42.2348591245786],"type":"Point"},"type":"Feature","properties":{"address":"Vía Norte, 9-1º A","image_uri":"http://www.turismodevigo.org/sites/turismodevigo/files/alo003.jpg","postcode":"36206","description":"Pequeno hotel próximo á antiga estación de tren (existe unha nova estación provisional na rúa Areal), fronte ó hospital de Fátima.","lon":-8.70890742159952,"title":"Sol-Por","type":14,"layer":"alojamientos","phone":"986416036","web":"www.hotelsolpor.com","subcategoria":"Hotel de 1 estrela","idpoi":8231,"mp3_uri":null,"lang":"gl-ES","lat":42.2348591245786}},{"geometry":{"coordinates":[-8.722294990654405,42.2390843967642],"type":"Point"},"type":"Feature","properties":{"address":"Marqués de Valladares, 8","image_uri":"http://www.turismodevigo.org/sites/turismodevigo/files/alo076.jpg","postcode":"36201","description":"Edificio rehabilitado en 2009. Un hotel urbano, cun elegante e coidado deseño, tanto interior como exterior, que escapa das estridencias formais e onde se coida ata o mais mínimo detalle.","lon":-8.722294990654405,"title":"Infinit","type":14,"layer":"alojamientos","phone":"986442224","web":"www.inffinit.com","subcategoria":"Hotel de 3 estrelas","idpoi":8303,"mp3_uri":null,"lang":"gl-ES","lat":42.2390843967642}},{"geometry":{"coordinates":[-8.715367045873336,42.2355109870083],"type":"Point"},"type":"Feature","properties":{"address":"Alfonso XIII, 11","image_uri":"http://www.turismodevigo.org/sites/turismodevigo/files/alo067.jpg","postcode":"36201","description":"Hotel próximo ó Porto de Vigo. Situado no núcleo urbano de Vigo, ubicado na zona comercial e financeira da cidade, a 700 metros da estación de ferrocarril e 15 minutos do aeroporto.","lon":-8.715367045873336,"title":"Ensenada","type":14,"layer":"alojamientos","phone":"986447440","web":"www.ensenadavigo.com","subcategoria":"Hotel de 3 estrelas","idpoi":8294,"mp3_uri":null,"lang":"gl-ES","lat":42.2355109870083}},{"geometry":{"coordinates":[-8.718657310864842,42.2374677412219],"type":"Point"},"type":"Feature","properties":{"address":"Avda García Barbón, 17-19","image_uri":"http://www.turismodevigo.org/sites/turismodevigo/files/alo084.jpg","postcode":"36201","description":"O Hotel NH Palacio de Vigo ofrece 108 elegantes e acolledoras habitacións nun edificio histórico completamente renovado que data do 1904. A fachada orixinal de granito e a carpintería interior están realzadas coas máis modernas comodidades.","lon":-8.718657310864842,"title":"NH Palacio de Vigo","type":14,"layer":"alojamientos","phone":"986433643","web":"www.nh-hotels.com","subcategoria":"Hotel de 4 estrelas","idpoi":8311,"mp3_uri":null,"lang":"gl-ES","lat":42.2374677412219}},{"geometry":{"coordinates":[-8.686300599999981,42.1709965],"type":"Point"},"type":"Feature","properties":{"address":"Rúa Xeración Nos, 4","image_uri":"http://www.turismodevigo.org/sites/turismodevigo/files/alo101.jpg","postcode":"36310","description":"Dispón de 21 habitacións individuais con cociña e 205 habitacións indidividuais con cociña compartida. Todas as habitacións teñen baño propio, teléfono, calefacción, internet, antena de tv e conexión vía satélite. Habitácións adaptadas a discapacitados.","lon":-8.686300599999981,"title":"O Castro","type":14,"layer":"alojamientos","phone":"986031000","web":"http://www.resa.es/Residencias/O-Castro","subcategoria":"Residencia de estudantes","idpoi":10246,"mp3_uri":null,"lang":"gl-ES","lat":42.1709965}},{"geometry":{"coordinates":[-8.7176643232259,42.2371879852373],"type":"Point"},"type":"Feature","properties":{"address":"García Barbón, 35","image_uri":"http://www.turismodevigo.org/sites/turismodevigo/files/alo055.jpg","postcode":"36201","description":"O Hotel Atlántico é un moderno e funcional hotel ancorado no centro da cidade de Vigo.","lon":-8.7176643232259,"title":"Atlántico","type":14,"layer":"alojamientos","phone":"986220530","web":"www.hotelatlanticovigo.com","subcategoria":"Hotel de 2 estrelas","idpoi":8283,"mp3_uri":null,"lang":"gl-ES","lat":42.2371879852373}},{"geometry":{"coordinates":[-8.71986483512658,42.240845223896],"type":"Point"},"type":"Feature","properties":{"address":"Praza de Compostela","image_uri":"http://www.turismodevigo.org/sites/turismodevigo/files/alo073.jpg","postcode":"36201","description":"Situado nun edificio histórico, conserva a súa impoñente fachada catalogada. Xa no seu interior totalmente reformado, o deseño de cada un dos seus espazos está marcado por liñas clásicas e orientais fusionadas co vanguardismo máis moderno.","lon":-8.71986483512658,"title":"Gran Hotel Nagari","type":14,"layer":"alojamientos","phone":"986211111","web":"www.gruposolvidahoteles.com/spa/nagari_boutique_spa.php","subcategoria":"Hotel de 5 estrelas","idpoi":8300,"mp3_uri":null,"lang":"gl-ES","lat":42.240845223896}},{"geometry":{"coordinates":[-8.72427957833081,42.2387490821213],"type":"Point"},"type":"Feature","properties":{"address":"Victoria, 6","image_uri":null,"postcode":"36201","description":"En pleno centro comercial e a moi poucos metros do paseo marítimo donde se encontra o Club náutico e Porto Comercial.","lon":-8.72427957833081,"title":"El Águila","type":14,"layer":"alojamientos","phone":"986431398","web":"www.hotelaguila.com","subcategoria":"Hotel de 1 estrela","idpoi":8293,"mp3_uri":null,"lang":"gl-ES","lat":42.2387490821213}},{"geometry":{"coordinates":[-8.7246151813054,42.2400392950089],"type":"Point"},"type":"Feature","properties":{"address":"Cánovas del Castillo, 28","image_uri":"http://www.turismodevigo.org/sites/turismodevigo/files/alo052.jpg","postcode":"36202","description":"O AC Hotel Palacio Universal, construído a finais do século XIX e situado no corazón da cidade. Encóntrase moi preto do centro histórico e non moi lonxe da praia, do paseo marítimo e do centro de exposicións.","lon":-8.7246151813054,"title":"Ac Hotel Palacio Universal","type":14,"layer":"alojamientos","phone":"986449250","web":"www.espanol.marriott.com/hotels/travel/vgopa-ac-hotel-palacio-universal","subcategoria":"Hotel de 4 estrelas","idpoi":8280,"mp3_uri":null,"lang":"gl-ES","lat":42.2400392950089}},{"geometry":{"coordinates":[-8.72439602489276,42.239720281362],"type":"Point"},"type":"Feature","properties":{"address":"García Olloqui, 5","image_uri":"http://www.turismodevigo.org/sites/turismodevigo/files/alo064.jpg","postcode":"36201","description":"O hotel dispón de 30 habitacións confortables equipadas co último en calidade e servizos, para facerlle do seu aloxamento na nosa cidade unha estancia agradable e satisfactoria.","lon":-8.72439602489276,"title":"Compostela","type":14,"layer":"alojamientos","phone":"986228227","web":"www.hcompostela.com","subcategoria":"Hotel de 2 estrelas","idpoi":8291,"mp3_uri":null,"lang":"gl-ES","lat":42.239720281362}},{"geometry":{"coordinates":[-8.74547999911297,42.2191611706781],"type":"Point"},"type":"Feature","properties":{"address":"Sanxenxo, 1","image_uri":null,"postcode":"36209","description":"El hotel dispone de 12 salones para reuniones y convenciones de distintas capacidadess dotados de los mas modernos medios audiovisuales, restaurante, cafeteria snack,salon de t.v., garaje y parking gratuitos. Red wifi en todo el hotel.","lon":-8.74547999911297,"title":"Coia","type":14,"layer":"alojamientos","phone":"986201820","web":"www.hotelcoia.com/hotel-overview.html","subcategoria":"Hotel de 4 estrelas","idpoi":8290,"mp3_uri":null,"lang":"gl-ES","lat":42.2191611706781}},{"geometry":{"coordinates":[-8.72086138243071,42.2401549247422],"type":"Point"},"type":"Feature","properties":{"address":"Concepción Arenal, 5","image_uri":"http://www.turismodevigo.org/sites/turismodevigo/files/alo062.jpg","postcode":"36201","description":"Amplas habitacións dotadas de mesa de traballo e conexión Wifi gratuíta, párking, salóns de reunións e congresos así coma unha ampla carta de restauración.","lon":-8.72086138243071,"title":"Ciudad de Vigo","type":14,"layer":"alojamientos","phone":"986227820","web":"www.ciudaddevigo.com","subcategoria":"Hotel de 4 estrelas","idpoi":8289,"mp3_uri":null,"lang":"gl-ES","lat":42.2401549247422}},{"geometry":{"coordinates":[-8.71500485130544,42.2334741902694],"type":"Point"},"type":"Feature","properties":{"address":"México, 7","image_uri":"http://www.turismodevigo.org/sites/turismodevigo/files/alo059.jpg","postcode":"36204","description":"O hotel está situado en pleno centro da cidade e preto das principais rúas comerciais da cidade.","lon":-8.71500485130544,"title":"Casablanca","type":14,"layer":"alojamientos","phone":"986482712","web":"www.hotelcasablancavigo.com","subcategoria":"Hotel de 2 estrelas","idpoi":8286,"mp3_uri":null,"lang":"gl-ES","lat":42.2334741902694}},{"geometry":{"coordinates":[-8.72184042125555,42.2398594403046],"type":"Point"},"type":"Feature","properties":{"address":"Pablo Morillo, 6","image_uri":"http://www.turismodevigo.org/sites/turismodevigo/files/alo053.jpg","postcode":"36201","description":"Modernas e acolledoras instalacións, servizo personalizado e de calidade e unha situación estratéxica no centro da cidade.","lon":-8.72184042125555,"title":"América","type":14,"layer":"alojamientos","phone":"986438922","web":"www.hotelamerica-vigo.com","subcategoria":"Hotel de 3 estrelas","idpoi":8281,"mp3_uri":null,"lang":"gl-ES","lat":42.2398594403046}},{"geometry":{"coordinates":[-8.7155813301487,42.2329973817858],"type":"Point"},"type":"Feature","properties":{"address":"México, 22","image_uri":"http://www.turismodevigo.org/sites/turismodevigo/files/alo060.jpg","postcode":"36204","description":"O hotel conta con 44 habitacións.","lon":-8.7155813301487,"title":"Celta","type":14,"layer":"alojamientos","phone":"986414699","web":"www.hotelceltavigo.com","subcategoria":"Hotel de 2 estrelas","idpoi":8287,"mp3_uri":null,"lang":"gl-ES","lat":42.2329973817858}},{"geometry":{"coordinates":[-8.71488069156882,42.2368168044623],"type":"Point"},"type":"Feature","properties":{"address":"García Barbón, 42","image_uri":null,"postcode":"36201","description":"El hotel dispone de 50 cómodas y amplias habitaciones todas exteriores, la mitad con terraza-galería a la avenida principal y las del ático con terraza.","lon":-8.71488069156882,"title":"Canaima","type":14,"layer":"alojamientos","phone":"986430934","web":"www.hotelcanaimavigo.es","subcategoria":"Hotel de 2 estrelas","idpoi":8285,"mp3_uri":null,"lang":"gl-ES","lat":42.2368168044623}},{"geometry":{"coordinates":[-8.71733390962759,42.2356284258673],"type":"Point"},"type":"Feature","properties":{"address":"María Berdiales, 22","image_uri":"http://www.turismodevigo.org/sites/turismodevigo/files/alo056.jpg","postcode":"36203","description":"Hotel de recente apertura, ofrece dende a súa privilexiada ubicación no centro de Vigo a posibilidade de poder visitar a nosa cidade con toda comodidade.","lon":-8.71733390962759,"title":"Axis Vigo","type":14,"layer":"alojamientos","phone":"986441112","web":"www.hotelaxisvigo.com","subcategoria":"Hotel de 4 estrelas","idpoi":8284,"mp3_uri":null,"lang":"gl-ES","lat":42.2356284258673}},{"geometry":{"coordinates":[-8.73490936382597,42.219593675344],"type":"Point"},"type":"Feature","properties":{"address":"La Florida, 12","image_uri":"http://www.turismodevigo.org/sites/turismodevigo/files/alo061.jpg","postcode":"36210","description":"Inaugurado en 1985 e reformado completamente no 2005 encóntrase situado na Praza de América. Conta con praza de garaxe e as habitacións gozan de tódalas comodidades.","lon":-8.73490936382597,"title":"Chipén","type":14,"layer":"alojamientos","phone":"986231281","web":"www.hotelchipen.com","subcategoria":"Hotel de 1 estrela","idpoi":8288,"mp3_uri":null,"lang":"gl-ES","lat":42.219593675344}},{"geometry":{"coordinates":[-8.72577196996189,42.2400482511174],"type":"Point"},"type":"Feature","properties":{"address":"Avda. Cánovas del Castillo, 24","image_uri":"http://www.turismodevigo.org/sites/turismodevigo/files/alo075.jpg","postcode":"36202","description":"O Sercotel Hotel Bahía de Vigo conta con 91 habitacións elegantemente decoradas e equipadas con bañeiras de hidromasaxe. Ten Internet Wifi gratis en tódalas súas instalacións.","lon":-8.72577196996189,"title":"Husa Bahía de Vigo","type":14,"layer":"alojamientos","phone":"986226700","web":"www.hotelbahiadevigo.com","subcategoria":"Hotel de 4 estrelas","idpoi":8302,"mp3_uri":null,"lang":"gl-ES","lat":42.2400482511174}},{"geometry":{"coordinates":[-8.71278951192356,42.2337550438392],"type":"Point"},"type":"Feature","properties":{"address":"Vía Norte, 10","image_uri":"http://www.turismodevigo.org/sites/turismodevigo/files/alo081.jpg","postcode":"36204","description":"Situado no centro de Vigo, con marabillosas vistas sobre a Ría, o Hotel México encóntrase a un paso da zona comercial e de ocio así coma do casco histórico e da área portuaria.","lon":-8.71278951192356,"title":"México","type":14,"layer":"alojamientos","phone":"986431666","web":"www.mexicohotel.com","subcategoria":"Hotel de 3 estrelas","idpoi":8308,"mp3_uri":null,"lang":"gl-ES","lat":42.2337550438392}},{"geometry":{"coordinates":[-8.72504024307929,42.2389395257432],"type":"Point"},"type":"Feature","properties":{"address":"Gamboa","image_uri":"http://www.turismodevigo.org/sites/turismodevigo/files/alo095.jpg","postcode":"36201","description":"Estamos ubicados no casco antigo da cidade, a 50 metros do Porto Deportivo e a Estación Marítima, nun edificio do século XIX, que rehabilitamos completamente dotándoa de confort e funcionalidade.","lon":-8.72504024307929,"title":"Puerta de Gamboa","type":14,"layer":"alojamientos","phone":"986227189","web":"www.hotelpuertagamboa.com","subcategoria":"Hotel de 2 estrelas","idpoi":8321,"mp3_uri":null,"lang":"gl-ES","lat":42.2389395257432}},{"geometry":{"coordinates":[-8.72491183778334,42.238252944599],"type":"Point"},"type":"Feature","properties":{"address":"Fermín Penzol, 14","image_uri":"http://www.turismodevigo.org/sites/turismodevigo/files/alo094.jpg","postcode":"36202","description":"O hotel está situado no centro de Vigo, a só 100 metros do Porto Marítimo e a 50 metros do Teatro García Barbon, ó lado da Estación de Ferrocarril Adif.","lon":-8.72491183778334,"title":"Princesa","type":14,"layer":"alojamientos","phone":"986442013","web":"www.hotelprincesavigo.es","subcategoria":"Hotel de 1 estrela","idpoi":8320,"mp3_uri":null,"lang":"gl-ES","lat":42.238252944599}},{"geometry":{"coordinates":[-8.76786260297968,42.2213433239887],"type":"Point"},"type":"Feature","properties":{"address":"Avda. Atlántida, 121","image_uri":"http://www.turismodevigo.org/sites/turismodevigo/files/alo093.jpg","postcode":"36208","description":"O hotel dispón de 15 habitacións.","lon":-8.76786260297968,"title":"Playa Santa Baia","type":14,"layer":"alojamientos","phone":"986214133","web":null,"subcategoria":"Hotel de 1 estrela","idpoi":8319,"mp3_uri":null,"lang":"gl-ES","lat":42.2213433239887}},{"geometry":{"coordinates":[-8.77648624749538,42.2035767705844],"type":"Point"},"type":"Feature","properties":{"address":"Avda. de Samil","image_uri":"http://www.turismodevigo.org/sites/turismodevigo/files/alo092.jpg","postcode":"36212","description":"O hotel Playa de Vigo está situado en fronte da praia de Samil, un amplo areal con piñeirais con unha lonxitude de case 2 km, e 35 m de anchura media.","lon":-8.77648624749538,"title":"Playa de Vigo","type":14,"layer":"alojamientos","phone":"986202020","web":"www.hotelplayadevigo.com","subcategoria":"Hotel de 1 estrela","idpoi":8318,"mp3_uri":null,"lang":"gl-ES","lat":42.2035767705844}},{"geometry":{"coordinates":[-8.76161059073016,42.2237403627321],"type":"Point"},"type":"Feature","properties":{"address":"Avda. Atlántida, 106","image_uri":"http://www.turismodevigo.org/sites/turismodevigo/files/alo090.jpg","postcode":"36208","description":"O hotel atópase nun entorno incomparable xunto a unha praia situada a escasos kilómetros do centro da cidade. Ocupa dous edificios, un antigo Pazo galego totalmente reformado e un edificio de nova construcción de ambiente contemporáneo.","lon":-8.76161059073016,"title":"Pazo Los Escudos  Hotel Resort","type":14,"layer":"alojamientos","phone":"986820820","web":"www.pazolosescudos.com","subcategoria":"Hotel de 5 estrelas","idpoi":8317,"mp3_uri":null,"lang":"gl-ES","lat":42.2237403627321}},{"geometry":{"coordinates":[-8.71538428809984,42.2347924776436],"type":"Point"},"type":"Feature","properties":{"address":"Lepanto, 18","image_uri":"http://www.turismodevigo.org/sites/turismodevigo/files/alo089.jpg","postcode":"36201","description":"Estratéxicamente situado no centro da cidade de Vigo, o Hotel Pantón é un establecemento familiar que conta con párking propio e gratuito no mesmo edificio.","lon":-8.71538428809984,"title":"Pantón","type":14,"layer":"alojamientos","phone":"986224270","web":"www.hotelpanton.com","subcategoria":"Hotel de 1 estrela","idpoi":8316,"mp3_uri":null,"lang":"gl-ES","lat":42.2347924776436}},{"geometry":{"coordinates":[-8.7405934016528,42.2157396852384],"type":"Point"},"type":"Feature","properties":{"address":"Avda. La Florida, 60","image_uri":"http://www.turismodevigo.org/sites/turismodevigo/files/alo074.jpg","postcode":"36210","description":"Situado no corazón do distrito comercial xunto a Praza de América, o Hesperia Vigo combina a ubicación ideal con comodidades de nivel superior. Dispón de 123 habitacións e acceso gratuíto a internet.","lon":-8.7405934016528,"title":"Hesperia Vigo","type":14,"layer":"alojamientos","phone":"986296600","web":"www.hesperia.com","subcategoria":"Hotel de 4 estrelas","idpoi":8301,"mp3_uri":null,"lang":"gl-ES","lat":42.2157396852384}},{"geometry":{"coordinates":[-8.71578341618483,42.234800884897],"type":"Point"},"type":"Feature","properties":{"address":"Lepanto, 10","image_uri":"http://www.turismodevigo.org/sites/turismodevigo/files/alo088.jpg","postcode":"36201","description":"Aloxado nunha construcción totalmente nova, e inaugurado en 2006, o Hotel Ogalia é un moderno establecemento urbano, situado no centro de Vigo, en plena zona comercial e de negocios da cidade.","lon":-8.71578341618483,"title":"Ogalia","type":14,"layer":"alojamientos","phone":"986222228","web":"www.hotelogalia.es","subcategoria":"Hotel de 2 estrelas","idpoi":8315,"mp3_uri":null,"lang":"gl-ES","lat":42.234800884897}},{"geometry":{"coordinates":[-8.73138564828254,42.2047671042478],"type":"Point"},"type":"Feature","properties":{"address":"Campos, s/n","image_uri":"http://www.turismodevigo.org/sites/turismodevigo/files/alo087.jpg","postcode":"36213","description":"Dispón de 13 habitacións.","lon":-8.73138564828254,"title":"O Pazo","type":14,"layer":"alojamientos","phone":"986236000","web":"www.residenciaopazo.com","subcategoria":"Hotel de 1 estrela","idpoi":8314,"mp3_uri":null,"lang":"gl-ES","lat":42.2047671042478}},{"geometry":{"coordinates":[-8.71748197090733,42.2362948135475],"type":"Point"},"type":"Feature","properties":{"address":"Uruguay, 19-21","image_uri":"http://www.turismodevigo.org/sites/turismodevigo/files/alo077.jpg","postcode":"36201","description":"Hotel Junquera ofrece unha situación inmellorable en pleno centro financeiro de Vigo. Conta con sala de reunións para 40 persoas e dispón de 63 habitacións.","lon":-8.71748197090733,"title":"Junquera","type":14,"layer":"alojamientos","phone":"986434888","web":"www.hoteljunquera.com","subcategoria":"Hotel de 2 estrelas","idpoi":8304,"mp3_uri":null,"lang":"gl-ES","lat":42.2362948135475}},{"geometry":{"coordinates":[-8.74951414838685,42.2222534778022],"type":"Point"},"type":"Feature","properties":{"address":"José de la Peña, 22","image_uri":"http://www.turismodevigo.org/sites/turismodevigo/files/alo078.jpg","postcode":"36208","description":"O hotel dispón de 12 habitacións con unha capacidade  total de 24 prazas.","lon":-8.74951414838685,"title":"La Suite","type":14,"layer":"alojamientos","phone":"986247664","web":"www.lasuitehotel.es","subcategoria":"Hotel de 2 estrelas","idpoi":8305,"mp3_uri":null,"lang":"gl-ES","lat":42.2222534778022}},{"geometry":{"coordinates":[-8.71520321696971,42.234547303965],"type":"Point"},"type":"Feature","properties":{"address":"Rúa Lepanto, 26","image_uri":null,"postcode":"1º y 2º","description":"El hotel dispone de 46 habitacioens.","lon":-8.71520321696971,"title":"Lino Vigo","type":14,"layer":"alojamientos","phone":"36201","web":"986439311","subcategoria":"Hotel de 2 estrelas","idpoi":8306,"mp3_uri":null,"lang":"gl-ES","lat":42.234547303965}},{"geometry":{"coordinates":[-8.72093311860883,42.239894341399],"type":"Point"},"type":"Feature","properties":{"address":"Luis Taboada, 34","image_uri":"http://www.turismodevigo.org/sites/turismodevigo/files/alo080.jpg","postcode":"36201","description":"En pleno centro financeiro e comercial da cidade de Vigo, xunto ó Club Náutico e ó paseo marítimo, próximo ó casco antigo e con fácil acceso ás praias encóntrase o Hotel del mar.","lon":-8.72093311860883,"title":"Mar, Del","type":14,"layer":"alojamientos","phone":"986436811","web":"www.hotel-del-mar.com","subcategoria":"Hotel de 1 estrela","idpoi":8307,"mp3_uri":null,"lang":"gl-ES","lat":42.239894341399}},{"geometry":{"coordinates":[-8.75264589929514,42.2096683398417],"type":"Point"},"type":"Feature","properties":{"address":"Cañiza, 41","image_uri":"http://www.turismodevigo.org/sites/turismodevigo/files/alo082.jpg","postcode":"36213","description":"O hotel dispón de 55 habitacións con unha capacidade  total de 110 prazas.","lon":-8.75264589929514,"title":"Motel Caribe","type":14,"layer":"alojamientos","phone":"986238484","web":"www.motelcaribe.es","subcategoria":"Hotel de 3 estrelas","idpoi":8309,"mp3_uri":null,"lang":"gl-ES","lat":42.2096683398417}},{"geometry":{"coordinates":[-8.72140334672488,42.2398923926431],"type":"Point"},"type":"Feature","properties":{"address":"Luis Taboada, 28","image_uri":"http://www.turismodevigo.org/sites/turismodevigo/files/alo083.jpg","postcode":"36201","description":"En pleno centro comercial e a moi poucos metros do paseo marítimo onde se encontra o Club Náutico e Porto Comercial. Dispón dun Párking a 30 metros do Hotel.","lon":-8.72140334672488,"title":"Náutico","type":14,"layer":"alojamientos","phone":"986122440","web":"www.hotelnautico.net","subcategoria":"Hotel de 1 estrela","idpoi":8310,"mp3_uri":null,"lang":"gl-ES","lat":42.2398923926431}},{"geometry":{"coordinates":[-8.71479010122542,42.2317513223495],"type":"Point"},"type":"Feature","properties":{"address":"Vázquez Varela, 31","image_uri":"http://www.turismodevigo.org/sites/turismodevigo/files/alo008.jpg","postcode":"36204","description":"Conta con 60 habitacións renovadas en xaneiro de 2011. Especializado en clientes de empresa, as súas instalacións dispoñen de wifi gratuíto.","lon":-8.71479010122542,"title":"Ipanema","type":14,"layer":"alojamientos","phone":"986471344","web":"www.hotelipanema.com","subcategoria":"Hotel de 3 estrelas","idpoi":8236,"mp3_uri":null,"lang":"gl-ES","lat":42.2317513223495}},{"geometry":{"coordinates":[-8.71590137723012,42.2347263889189],"type":"Point"},"type":"Feature","properties":{"address":"Lepanto, 8","image_uri":"http://www.turismodevigo.org/sites/turismodevigo/files/alo007.jpg","postcode":"36201","description":"O Hotel Arxentino é un novo establecemento en Vigo con tódalas vantaxes que iso supón: impecable e moderno no seu equipamento, no seu mobiliario e no seu deseño.","lon":-8.71590137723012,"title":"Argentino","type":14,"layer":"alojamientos","phone":"986443247","web":"www.hotelargentino.es","subcategoria":"Hotel de 1 estrela","idpoi":8235,"mp3_uri":null,"lang":"gl-ES","lat":42.2347263889189}},{"geometry":{"coordinates":[-8.71630422916759,42.2343313426205],"type":"Point"},"type":"Feature","properties":{"address":"Gran Vía, 1","image_uri":"http://www.turismodevigo.org/sites/turismodevigo/files/alo006.jpg","postcode":"36204","description":"Dispón de 99 habitacións.","lon":-8.71630422916759,"title":"Zénit Vigo","type":14,"layer":"alojamientos","phone":"986417255","web":"www.zenithoteles.com","subcategoria":"Hotel de 3 estrelas","idpoi":8234,"mp3_uri":null,"lang":"gl-ES","lat":42.2343313426205}},{"geometry":{"coordinates":[-8.7176606920481,42.2280127853506],"type":"Point"},"type":"Feature","properties":{"address":"Avda. de Madrid, 21","image_uri":"http://www.turismodevigo.org/sites/turismodevigo/files/alo005.jpg","postcode":"32604","description":"O Tryp Los Galeones, está situado no centro de Vigo. Na principal entrada á cidade polo acceso de Madrid N-120. A pouca distancia dos puntos turísticos de maior interese do casco urbano.","lon":-8.7176606920481,"title":"Tryp Los Galeones","type":14,"layer":"alojamientos","phone":"986480405","web":"www.galeones.com","subcategoria":"Hotel de 4 estrelas","idpoi":8233,"mp3_uri":null,"lang":"gl-ES","lat":42.2280127853506}},{"geometry":{"coordinates":[-8.71654899326392,42.2326516695984],"type":"Point"},"type":"Feature","properties":{"address":"Cuba, 19","image_uri":"http://www.turismodevigo.org/sites/turismodevigo/files/alo004.jpg","postcode":"36204","description":"O Sercotel Hotel Tres Luces é un elegante e confortable hotel en Vigo situado a poucos metros da Estación de Trens, en pleno núcleo financeiro e comercial e a poucos minutos do centro histórico de Vigo.","lon":-8.71654899326392,"title":"Tres Luces, Las","type":14,"layer":"alojamientos","phone":"986480250","web":"www.hotel3luces.com","subcategoria":"Hotel de 3 estrelas","idpoi":8232,"mp3_uri":null,"lang":"gl-ES","lat":42.2326516695984}},{"geometry":{"coordinates":[-8.72601112786843,42.2381420065331],"type":"Point"},"type":"Feature","properties":{"address":"Puerta del Sol, 14","image_uri":"http://www.turismodevigo.org/sites/turismodevigo/files/alo001.jpg","postcode":"36202","description":"O Puerta del Sol é un hotel situado en pleno centro histórico de Vigo, un novo concepto en hoteis de cidade, construído nun edificio restaurado do século XIX e renovado recentemente.","lon":-8.72601112786843,"title":"Puerta del Sol","type":14,"layer":"alojamientos","phone":"986222364","web":"www.alojamientosvigo.com/spa/hotel_habitaciones.php","subcategoria":"Hotel de 2 estrelas","idpoi":8229,"mp3_uri":null,"lang":"gl-ES","lat":42.2381420065331}}],"type":"FeatureCollection"}