{"features":[{"geometry":{"coordinates":[-8.72732559585762,42.239107626715],"type":"Point"},"type":"Feature","properties":{"address":"Rúa Real, 22 - 1º","image_uri":"http://www.turismodevigo.org/sites/turismodevigo/files/alo036.jpg","postcode":"36202","description":"Dispón de 4 habitacións.","lon":-8.72732559585762,"title":"Pensión Residencia Real","type":24,"layer":"alojamientos","phone":"986221429","web":"www.hostalrealenvigo.com","subcategoria":"Pensión 1 estrela","idpoi":8264,"mp3_uri":null,"lang":"gl-ES","lat":42.239107626715}},{"geometry":{"coordinates":[-8.71686916179769,42.2355070511155],"type":"Point"},"type":"Feature","properties":{"address":"Irmandiños, 22","image_uri":"http://www.turismodevigo.org/sites/turismodevigo/files/alo012.jpg","postcode":"36203","description":"A pensión conta con 28 prazas repartidas en 19 habitacións.","lon":-8.71686916179769,"title":"Ancla Dorada","type":24,"layer":"alojamientos","phone":"986436607","web":"www.ancladorada.com","subcategoria":"Pensión 2 estrelas","idpoi":8240,"mp3_uri":null,"lang":"gl-ES","lat":42.2355070511155}},{"geometry":{"coordinates":[-8.71581746685737,42.2356450411197],"type":"Point"},"type":"Feature","properties":{"address":"Alfonso XIII, 46","image_uri":"http://www.turismodevigo.org/sites/turismodevigo/files/alo024.jpg","postcode":"36201","description":"Dispón de 20 habitacións.","lon":-8.71581746685737,"title":"La Estradense","type":24,"layer":"alojamientos","phone":"986431512","web":null,"subcategoria":"Pensión 2 estrelas","idpoi":8252,"mp3_uri":null,"lang":"gl-ES","lat":42.2356450411197}},{"geometry":{"coordinates":[-8.71644838646638,42.2355841178181],"type":"Point"},"type":"Feature","properties":{"address":"Martín Codax, 7","image_uri":null,"postcode":"1º","description":"La pensión cuenta con 7 plazas repartidas en 5 habitaciones.","lon":-8.71644838646638,"title":"Illas Cíes","type":24,"layer":"alojamientos","phone":"36201","web":"986224378","subcategoria":"Pensión 1 estrela","idpoi":8251,"mp3_uri":null,"lang":"gl-ES","lat":42.2355841178181}},{"geometry":{"coordinates":[-8.7180447336453,42.2313289886964],"type":"Point"},"type":"Feature","properties":{"address":"Gran Vía, 41-5º","image_uri":"http://www.turismodevigo.org/sites/turismodevigo/files/alo022.jpg","postcode":"36204","description":"A pensión conta con 28 prazas repartidas en 15 habitacións.","lon":-8.7180447336453,"title":"Gran Vía","type":24,"layer":"alojamientos","phone":"986415444","web":"www.hostalgranvia.com","subcategoria":"Pensión 3 estrelas","idpoi":8250,"mp3_uri":null,"lang":"gl-ES","lat":42.2313289886964}},{"geometry":{"coordinates":[-8.71637084209452,42.2356880684808],"type":"Point"},"type":"Feature","properties":{"address":"Martín Codax, 5","image_uri":"http://www.turismodevigo.org/sites/turismodevigo/files/alo020.jpg","postcode":"36204","description":"Dispón de 6 habitacións.","lon":-8.71637084209452,"title":"Estrella, La","type":24,"layer":"alojamientos","phone":"986225035","web":"www.laestrellavigo.es","subcategoria":"Pensión 1 estrela","idpoi":8248,"mp3_uri":null,"lang":"gl-ES","lat":42.2356880684808}},{"geometry":{"coordinates":[-8.72556650825868,42.2396148890858],"type":"Point"},"type":"Feature","properties":{"address":"Baixada á Fonte, 3","image_uri":"http://www.turismodevigo.org/sites/turismodevigo/files/alo019.jpg","postcode":"36202","description":"A pensión conta con 18 prazas repartidas en 13 habitacións.","lon":-8.72556650825868,"title":"Continental","type":24,"layer":"alojamientos","phone":"986220764","web":null,"subcategoria":"Pensión 3 estrelas","idpoi":8247,"mp3_uri":null,"lang":"gl-ES","lat":42.2396148890858}},{"geometry":{"coordinates":[-8.71757172379448,42.2272039763516],"type":"Point"},"type":"Feature","properties":{"address":"Estr. Provincial, 26","image_uri":null,"postcode":"2º - 4º","description":"La pensión cuenta con 7 plazas repartidas en 5 habitaciones.","lon":-8.71757172379448,"title":"Consuelo","type":24,"layer":"alojamientos","phone":"36214","web":null,"subcategoria":"Pensión 1 estrela","idpoi":8246,"mp3_uri":null,"lang":"gl-ES","lat":42.2272039763516}},{"geometry":{"coordinates":[-8.71556164357418,42.2348789591465],"type":"Point"},"type":"Feature","properties":{"address":"Lepanto, 15","image_uri":"http://www.turismodevigo.org/sites/turismodevigo/files/alo017.jpg","postcode":"36201","description":"Este pequeno hostal de estilo tradicional ofrécelle un aloxamento confortable e unha boa situación no centro da bonita cidade galega de Vigo.","lon":-8.71556164357418,"title":"Casais","type":24,"layer":"alojamientos","phone":"886112956","web":"www.hostalcasaisvigo.com","subcategoria":"Pensión 2 estrelas","idpoi":8245,"mp3_uri":null,"lang":"gl-ES","lat":42.2348789591465}},{"geometry":{"coordinates":[-8.81230384128116,42.1730409008897],"type":"Point"},"type":"Feature","properties":{"address":"Baixada Praia Saiáns, 152","image_uri":"http://www.turismodevigo.org/sites/turismodevigo/files/alo016.jpg","postcode":"36392","description":"La pensión cuenta con 8 prazas repartidas en 5 habitacións.","lon":-8.81230384128116,"title":"Casa Roade","type":24,"layer":"alojamientos","phone":"986207712","web":null,"subcategoria":"Pensión 1 estrela","idpoi":8244,"mp3_uri":null,"lang":"gl-ES","lat":42.1730409008897}},{"geometry":{"coordinates":[-8.71946067098535,42.2380130534338],"type":"Point"},"type":"Feature","properties":{"address":"Marqués de Valladares, 56","image_uri":"http://www.turismodevigo.org/sites/turismodevigo/files/alo015.jpg","postcode":"36201","description":"A pensión conta con 33 prazas repartidas en 18 habitacións.","lon":-8.71946067098535,"title":"Buenos Aires","type":24,"layer":"alojamientos","phone":"986433924","web":null,"subcategoria":"Pensión 3 estrelas","idpoi":8243,"mp3_uri":null,"lang":"gl-ES","lat":42.2380130534338}},{"geometry":{"coordinates":[-8.74932936934321,42.2222375760967],"type":"Point"},"type":"Feature","properties":{"address":"José de La Peña, 22","image_uri":"http://www.turismodevigo.org/sites/turismodevigo/files/alo013.jpg","postcode":"36208","description":"A pensión dispón de 18 habitacións.","lon":-8.74932936934321,"title":"Bouzas","type":24,"layer":"alojamientos","phone":"986239565","web":null,"subcategoria":"Pensión 3 estrelas","idpoi":8241,"mp3_uri":null,"lang":"gl-ES","lat":42.2222375760967}},{"geometry":{"coordinates":[-8.73696098686241,42.2242344659861],"type":"Point"},"type":"Feature","properties":{"address":"Tomás A. Alonso, 66. 1º","image_uri":"http://www.turismodevigo.org/sites/turismodevigo/files/alo010.jpg","postcode":"36208","description":"Está situado  a 100 m do porto de Vigo, a 15 minutos do aeroporto e a 10 minutos da estación do tren e de autobuses. Dispón dunha parada de taxis ó lado do hostal.","lon":-8.73696098686241,"title":"Agra","type":24,"layer":"alojamientos","phone":"986235125","web":"www.hostalagra.com","subcategoria":"Pensión 1 estrela","idpoi":8238,"mp3_uri":null,"lang":"gl-ES","lat":42.2242344659861}},{"geometry":{"coordinates":[-8.72682436932027,42.2394801550979],"type":"Point"},"type":"Feature","properties":{"address":"Praza da Pedra, 7","image_uri":"http://www.turismodevigo.org/sites/turismodevigo/files/alo009.jpg","postcode":"36202","description":"A pensión conta con 22 prazas repartidas en 12 habitacións.","lon":-8.72682436932027,"title":"A Pedra","type":24,"layer":"alojamientos","phone":"986431594","web":null,"subcategoria":"Pensión 3 estrelas","idpoi":8237,"mp3_uri":null,"lang":"gl-ES","lat":42.2394801550979}},{"geometry":{"coordinates":[-8.72641772252373,42.2390881520984],"type":"Point"},"type":"Feature","properties":{"address":"Praza da Igrexa, 3","image_uri":null,"postcode":"1º e 2ª","description":"La pensión cuenta con 10 plazas repartidas en 10 habitaciones.","lon":-8.72641772252373,"title":"La Nueva Colegiata","type":24,"layer":"alojamientos","phone":"36202","web":"986220952","subcategoria":"Pensión 2 estrelas","idpoi":8253,"mp3_uri":null,"lang":"gl-ES","lat":42.2390881520984}},{"geometry":{"coordinates":[-8.72574361939855,42.2390772639938],"type":"Point"},"type":"Feature","properties":{"address":"La Palma, 7 1ºE 2º","image_uri":"http://www.turismodevigo.org/sites/turismodevigo/files/alo026.jpg","postcode":"36202","description":"A pensión conta con 20 prazas repartidas en 10 habitacións.","lon":-8.72574361939855,"title":"La Nueva Palma","type":24,"layer":"alojamientos","phone":"986430678","web":null,"subcategoria":"Pensión 1 estrela","idpoi":8254,"mp3_uri":null,"lang":"gl-ES","lat":42.2390772639938}},{"geometry":{"coordinates":[-8.73505148415907,42.2195541804837],"type":"Point"},"type":"Feature","properties":{"address":"Avda. de La Florida, 14","image_uri":"http://www.turismodevigo.org/sites/turismodevigo/files/alo027.jpg","postcode":"36210","description":"A pensión conta con 21 prazas repartidas en 14 habitacións.","lon":-8.73505148415907,"title":"Lalín","type":24,"layer":"alojamientos","phone":"986232699","web":"www.hostallalin.com","subcategoria":"Pensión 2 estrelas","idpoi":8255,"mp3_uri":null,"lang":"gl-ES","lat":42.2195541804837}},{"geometry":{"coordinates":[-8.71530336795484,42.2346596196207],"type":"Point"},"type":"Feature","properties":{"address":"Lepanto, 22","image_uri":"http://www.turismodevigo.org/sites/turismodevigo/files/alo045.jpg","postcode":"36201","description":"Dispón de 6 habitacións.","lon":-8.71530336795484,"title":"Viturro","type":24,"layer":"alojamientos","phone":"986437332","web":null,"subcategoria":"Pensión 1 estrela","idpoi":8273,"mp3_uri":null,"lang":"gl-ES","lat":42.2346596196207}},{"geometry":{"coordinates":[-8.75052370458836,42.2238165953766],"type":"Point"},"type":"Feature","properties":{"address":"Tomás A. Alonso, 204","image_uri":"http://www.turismodevigo.org/sites/turismodevigo/files/alo044.jpg","postcode":"36208","description":"Dispón de 13 habitacións.","lon":-8.75052370458836,"title":"Vista Alegre","type":24,"layer":"alojamientos","phone":"605082575","web":null,"subcategoria":"Pensión 1 estrela","idpoi":8272,"mp3_uri":null,"lang":"gl-ES","lat":42.2238165953766}},{"geometry":{"coordinates":[-8.7765583044878,42.205607689023],"type":"Point"},"type":"Feature","properties":{"address":"Avda. Samil, 75","image_uri":"http://www.turismodevigo.org/sites/turismodevigo/files/alo043.jpg","postcode":"36200","description":"A pensión conta con 44 prazas repartidas en 22 habitacións.","lon":-8.7765583044878,"title":"Verde Mar","type":24,"layer":"alojamientos","phone":"986206372","web":"www.hotelverdemar.es","subcategoria":"Pensión 1 estrela","idpoi":8271,"mp3_uri":null,"lang":"gl-ES","lat":42.205607689023}},{"geometry":{"coordinates":[-8.71588383008932,42.2313845760635],"type":"Point"},"type":"Feature","properties":{"address":"Venezuela, 61","image_uri":"http://www.turismodevigo.org/sites/turismodevigo/files/alo042.jpg","postcode":"36204","description":"A pensión conta con 19 prazas repartidas en 11 habitacións.","lon":-8.71588383008932,"title":"Tres Países","type":24,"layer":"alojamientos","phone":"986420477","web":"www.hostallostrespaises.com","subcategoria":"Pensión 2 estrelas","idpoi":8270,"mp3_uri":null,"lang":"gl-ES","lat":42.2313845760635}},{"geometry":{"coordinates":[-8.71712092719076,42.2356170221152],"type":"Point"},"type":"Feature","properties":{"address":"Cervantes, 14","image_uri":"http://www.turismodevigo.org/sites/turismodevigo/files/alo041.jpg","postcode":"36201","description":"A pensión conta con 13 prazas repartidas en 10 habitacións.","lon":-8.71712092719076,"title":"Ría de Vigo","type":24,"layer":"alojamientos","phone":"986737240","web":"www.hostalriadevigo.com","subcategoria":"Pensión 2 estrelas","idpoi":8269,"mp3_uri":null,"lang":"gl-ES","lat":42.2356170221152}},{"geometry":{"coordinates":[-8.71674708213472,42.2361680542294],"type":"Point"},"type":"Feature","properties":{"address":"Cervantes, 4","image_uri":"http://www.turismodevigo.org/sites/turismodevigo/files/alo040.jpg","postcode":"36201","description":"A pensión conta con 8 prazas repartidas en 4 habitacións.","lon":-8.71674708213472,"title":"Ría de Arosa","type":24,"layer":"alojamientos","phone":"986435096","web":null,"subcategoria":"Pensión 2 estrelas","idpoi":8268,"mp3_uri":null,"lang":"gl-ES","lat":42.2361680542294}},{"geometry":{"coordinates":[-8.71788865728106,42.2391501864518],"type":"Point"},"type":"Feature","properties":{"address":"Areal, 3","image_uri":"http://www.turismodevigo.org/sites/turismodevigo/files/alo038.jpg","postcode":"36201","description":"Dispón de 3 habitacións.","lon":-8.71788865728106,"title":"Puerto","type":24,"layer":"alojamientos","phone":"986222044","web":null,"subcategoria":"Pensión 1 estrela","idpoi":8266,"mp3_uri":null,"lang":"gl-ES","lat":42.2391501864518}},{"geometry":{"coordinates":[-8.71299033254886,42.2332687574994],"type":"Point"},"type":"Feature","properties":{"address":"Urzáiz, 75 - 3º","image_uri":"http://www.turismodevigo.org/sites/turismodevigo/files/alo037.jpg","postcode":"36204","description":"A pensión conta con 9 prazas repartidas en 6 habitacións.","lon":-8.71299033254886,"title":"Plaza","type":24,"layer":"alojamientos","phone":"986224254","web":"www.hostalplazavigo.com","subcategoria":"Pensión 2 estrelas","idpoi":8265,"mp3_uri":null,"lang":"gl-ES","lat":42.2332687574994}},{"geometry":{"coordinates":[-8.68920886365754,42.2514954033883],"type":"Point"},"type":"Feature","properties":{"address":"Avda. de Galicia, 162","image_uri":"http://www.turismodevigo.org/sites/turismodevigo/files/alo035.jpg","postcode":"36216","description":"A pensión conta con 10 prazas repartidas en 5 habitacións.","lon":-8.68920886365754,"title":"Obdulia","type":24,"layer":"alojamientos","phone":"986279509","web":null,"subcategoria":"Pensión 1 estrela","idpoi":8263,"mp3_uri":null,"lang":"gl-ES","lat":42.2514954033883}},{"geometry":{"coordinates":[-8.68262120003004,42.2147854734504],"type":"Point"},"type":"Feature","properties":{"address":"Baixada ao Castelo, 70","image_uri":null,"postcode":"36214","description":"A pensión conta con 24 prazas repartidas en 14 habitacións.","lon":-8.68262120003004,"title":"O' Rancheiro","type":24,"layer":"alojamientos","phone":"986423919","web":null,"subcategoria":"Pensión 2 estrelas","idpoi":8262,"mp3_uri":null,"lang":"gl-ES","lat":42.2147854734504}},{"geometry":{"coordinates":[-8.66930026578842,42.208594615496],"type":"Point"},"type":"Feature","properties":{"address":"Xestoso , 306","image_uri":"http://www.turismodevigo.org/sites/turismodevigo/files/alo033.jpg","postcode":"36214","description":"Dispón de 14 habitacións.","lon":-8.66930026578842,"title":"Nuevo Alonso","type":24,"layer":"alojamientos","phone":"986375878","web":null,"subcategoria":"Pensión 1 estrela","idpoi":8261,"mp3_uri":null,"lang":"gl-ES","lat":42.208594615496}},{"geometry":{"coordinates":[-8.72919430843667,42.2189559980405],"type":"Point"},"type":"Feature","properties":{"address":"Do Carmo, 31","image_uri":"http://www.turismodevigo.org/sites/turismodevigo/files/alo032.jpg","postcode":"36210","description":"Dispón de 18 habitacións.","lon":-8.72919430843667,"title":"Nuestra Señora del Carmen","type":24,"layer":"alojamientos","phone":"986472729","web":null,"subcategoria":"Pensión 1 estrela","idpoi":8260,"mp3_uri":null,"lang":"gl-ES","lat":42.2189559980405}},{"geometry":{"coordinates":[-8.71613101010919,42.2344794223445],"type":"Point"},"type":"Feature","properties":{"address":"Urzaiz, 53 -1º","image_uri":"http://www.turismodevigo.org/sites/turismodevigo/files/alo031.jpg","postcode":"36201","description":"A pensión conta con 27 prazas repartidas en 16 habitacións.","lon":-8.71613101010919,"title":"Noso Lar","type":24,"layer":"alojamientos","phone":"986224259","web":"www.hostalnosolar.com","subcategoria":"Pensión 1 estrela","idpoi":8259,"mp3_uri":null,"lang":"gl-ES","lat":42.2344794223445}},{"geometry":{"coordinates":[-8.75379930459881,42.2203968502362],"type":"Point"},"type":"Feature","properties":{"address":"Tomás Paredes, 25","image_uri":"http://www.turismodevigo.org/sites/turismodevigo/files/alo029.jpg","postcode":"36208","description":"Dispón de 5 habitacións.","lon":-8.75379930459881,"title":"Manolo","type":24,"layer":"alojamientos","phone":"986231096","web":"www.pensioncasamanolo.es","subcategoria":"Pensión 1 estrela","idpoi":8257,"mp3_uri":null,"lang":"gl-ES","lat":42.2203968502362}},{"geometry":{"coordinates":[-8.71477742091729,42.2347520405232],"type":"Point"},"type":"Feature","properties":{"address":"Alfonso XIII, 25 - 3º","image_uri":"http://www.turismodevigo.org/sites/turismodevigo/files/alo028.jpg","postcode":"36201","description":"A pensión conta con 26 prazas repartidas en 15 habitacións.","lon":-8.71477742091729,"title":"Madrid","type":24,"layer":"alojamientos","phone":"986221302","web":null,"subcategoria":"Pensión 1 estrela","idpoi":8256,"mp3_uri":null,"lang":"gl-ES","lat":42.2347520405232}},{"geometry":{"coordinates":[-8.71229788537192,42.2329962513866],"type":"Point"},"type":"Feature","properties":{"address":"Urzáiz, 83-1ºA","image_uri":null,"postcode":"36204","description":"Dispón de 7 habitacións.","lon":-8.71229788537192,"title":"Lar Atlántica","type":24,"layer":"alojamientos","phone":"616706948","web":"www.laratlantica.com","subcategoria":"Pensión 1 estrela","idpoi":8267,"mp3_uri":null,"lang":"gl-ES","lat":42.2329962513866}}],"type":"FeatureCollection"}