{"features":[{"geometry":{"coordinates":[-8.721064892983577,42.2358593745221],"type":"Point"},"type":"Feature","properties":{"address":"Príncipe, 54","image_uri":"http://www.turismodevigo.org/sites/turismodevigo/files/lug325.jpg","postcode":"36202","description":"Espacio habilitado para la realización de eventos públicos.","lon":-8.721064892983577,"title":"Auditorio del Museo de Arte Contemporánea de Vigo (MARCO)","type":37,"layer":"lugares","phone":"986113900","web":"www.marcovigo.com","subcategoria":"Auditorio","idpoi":8688,"mp3_uri":"http://www.turismodevigo.org/sites/turismodevigo/files/09-museo_de_arte_contemporaneo_de_vigo_0.mp3","lang":"es-ES","lat":42.2358593745221}},{"geometry":{"coordinates":[-8.722306001475545,42.2402628825264],"type":"Point"},"type":"Feature","properties":{"address":"Avda Montero Ríos, 22","image_uri":"http://www.turismodevigo.org/sites/turismodevigo/files/lug052.jpg","postcode":"36201","description":"Es una de las obras con carácter más modernista del arquitecto Gómez Román aunque también presenta influencias eclécticas, vienesas y belgas.","lon":-8.722306001475545,"title":"Casa Enrique Mülder","type":37,"layer":"lugares","phone":null,"web":null,"subcategoria":"Arquitectura civil","idpoi":8433,"mp3_uri":"http://www.turismodevigo.org/sites/turismodevigo/files/07-edificio_mulder_cast.mp3","lang":"es-ES","lat":42.2402628825264}},{"geometry":{"coordinates":[-8.725825075030343,42.2392728022593],"type":"Point"},"type":"Feature","properties":{"address":"Plaza de la Colegiata","image_uri":"http://www.turismodevigo.org/sites/turismodevigo/files/lug078.jpg","postcode":"36202","description":"Edificio religioso de estilo Neoclásico de principios del siglo XIX, obra de Melchor de Prado. Actualmente es Concatedral de la diócesis de Tui-Vigo.","lon":-8.725825075030343,"title":"Colegiata de Santa María (Concatedral)","type":37,"layer":"lugares","phone":null,"web":null,"subcategoria":"Arquitectura religiosa","idpoi":8459,"mp3_uri":"http://www.turismodevigo.org/sites/turismodevigo/files/06-concatedral_de_vigo_cast.mp3","lang":"es-ES","lat":42.2392728022593}},{"geometry":{"coordinates":[-8.726658277905358,42.2391856088788],"type":"Point"},"type":"Feature","properties":{"address":"Plaza de Almeida, 4","image_uri":"http://www.turismodevigo.org/sites/turismodevigo/files/lug047.jpg","postcode":"36202","description":"Palacete urbano situado en el barrio histórico de la ciudad. Forma unidad arquitectónica con la Casa de Ceta; en la actualidad, ambos conforman la sede del Instituto Camôes de cultura portuguesa en Vigo. Data del siglo XVI.","lon":-8.726658277905358,"title":"Casa de Pazos e Figueroa","type":37,"layer":"lugares","phone":null,"web":null,"subcategoria":"Arquitectura civil","idpoi":8428,"mp3_uri":"http://www.turismodevigo.org/sites/turismodevigo/files/05-torre_y_casa_de_los_pazos_de_figueroa.mp3","lang":"es-ES","lat":42.2391856088788}},{"geometry":{"coordinates":[-8.71221986331063,42.2366756596314],"type":"Point"},"type":"Feature","properties":{"address":"García Barbón 62","image_uri":"http://www.turismodevigo.org/sites/turismodevigo/files/lug322.jpg","postcode":"36201","description":"Espacio habilitado para la realización de eventos públicos.","lon":-8.71221986331063,"title":"Auditorio del Club Financiero de Vigo","type":37,"layer":"lugares","phone":"986447220","web":"www.clubfinancierovigo.com","subcategoria":"Auditorio","idpoi":8685,"mp3_uri":null,"lang":"es-ES","lat":42.2366756596314}},{"geometry":{"coordinates":[-8.71884908268981,42.2366043350156],"type":"Point"},"type":"Feature","properties":{"address":"República Argentina, 18","image_uri":"http://www.turismodevigo.org/sites/turismodevigo/files/lug321.jpg","postcode":"36201","description":"Espacio habilitado para la realización de eventos públicos.","lon":-8.71884908268981,"title":"Auditorio de la Cámara de Comercio de Vigo","type":37,"layer":"lugares","phone":"986446343","web":"www.camaravigo.com","subcategoria":"Auditorio","idpoi":8684,"mp3_uri":null,"lang":"es-ES","lat":42.2366043350156}},{"geometry":{"coordinates":[-8.76992736745358,42.2241397002066],"type":"Point"},"type":"Feature","properties":{"address":"Avda. Atlántida, nº 160","image_uri":"http://www.turismodevigo.org/sites/turismodevigo/files/lug324.jpg","postcode":"36208","description":"Espacio habilitado para la realización de eventos públicos.","lon":-8.76992736745358,"title":"Auditorio del Museo do Mar de Galicia","type":37,"layer":"lugares","phone":"986247750","web":"www.museodomar.com","subcategoria":"Auditorio","idpoi":8687,"mp3_uri":null,"lang":"es-ES","lat":42.2241397002066}},{"geometry":{"coordinates":[-8.77361620143955,42.2129670379203],"type":"Point"},"type":"Feature","properties":{"address":"Avda. de Samil, nº 17","image_uri":"http://www.turismodevigo.org/sites/turismodevigo/files/lug326.jpg","postcode":"36212","description":"Espacio habilitado para la realización de eventos públicos.","lon":-8.77361620143955,"title":"Verbum - Casa das Palabras","type":37,"layer":"lugares","phone":"986240130","web":"www.verbum.vigo.org","subcategoria":"Auditorio","idpoi":8689,"mp3_uri":null,"lang":"es-ES","lat":42.2129670379203}},{"geometry":{"coordinates":[-8.72331004116441,42.2289400649774],"type":"Point"},"type":"Feature","properties":{"address":"Manuel Olivé, 23","image_uri":"http://www.turismodevigo.org/sites/turismodevigo/files/lug320.jpg","postcode":"36203","description":"Espacio habilitado para la realización de eventos públicos.","lon":-8.72331004116441,"title":"Auditorio Martín Códax del Conservatorio Superior de Música","type":37,"layer":"lugares","phone":"986471144","web":"http://conservatoriosuperiorvigo.com","subcategoria":"Auditorio","idpoi":8683,"mp3_uri":null,"lang":"es-ES","lat":42.2289400649774}},{"geometry":{"coordinates":[-8.73089662653396,42.2360817380351],"type":"Point"},"type":"Feature","properties":{"address":"Camino de San Francisco","image_uri":"http://www.turismodevigo.org/sites/turismodevigo/files/lug331.jpg","postcode":"36202","description":"Antiguo monasterio del Siglo XVII, que tiene su origen en una desaparecida ermita del siglo X. Después de la desamortización en 1887 es Casa de la Caridad.","lon":-8.73089662653396,"title":"Iglesia de San Francisco","type":37,"layer":"lugares","phone":null,"web":null,"subcategoria":"Arquitectura religiosa","idpoi":8694,"mp3_uri":null,"lang":"es-ES","lat":42.2360817380351}},{"geometry":{"coordinates":[-8.724768,42.2373],"type":"Point"},"type":"Feature","properties":{"address":"Doctor Cadaval, 5","image_uri":"http://www.turismodevigo.org/sites/turismodevigo/files/lug367.jpg","postcode":"36202","description":"Edificio de corte vangüardista diseñado por Irisarri y Piñera.","lon":-8.724768,"title":"Colexio oficial de arquitectos de Galicia","type":37,"layer":"lugares","phone":"986439633","web":"www.coagvigo.es","subcategoria":"Arquitectura civil","idpoi":8723,"mp3_uri":"http://www.turismodevigo.org/sites/turismodevigo/files/lug367es.mp3","lang":"es-ES","lat":42.2373}},{"geometry":{"coordinates":[-8.75565147137398,42.2297450043917],"type":"Point"},"type":"Feature","properties":{"address":"Área Portuaria de Bouzas s/n","image_uri":"http://www.turismodevigo.org/sites/turismodevigo/files/lug323.jpg","postcode":"36208","description":"Espacio habilitado para la realización de eventos públicos.","lon":-8.75565147137398,"title":"Auditorio Zona Franca de Vigo","type":37,"layer":"lugares","phone":"986269700","web":"www.zonafrancavigo.com/zonafrancavigo_es/","subcategoria":"Auditorio","idpoi":8686,"mp3_uri":null,"lang":"es-ES","lat":42.2297450043917}},{"geometry":{"coordinates":[-8.72743893666551,42.2290677797197],"type":"Point"},"type":"Feature","properties":{"address":"Atalaya del Monte de O Castro","image_uri":"http://www.turismodevigo.org/sites/turismodevigo/files/lug286.jpg","postcode":"36203","description":"Iglesia de estilo neoclasicista, inspirada en la iglesia parisina de la Magdalena de Bartolomé Vignon. Fue promovida por Leopoldo Eijo-garay (Obispo de Madrid-Alcalá).","lon":-8.72743893666551,"title":"Iglesia de la Soledad","type":37,"layer":"lugares","phone":null,"web":null,"subcategoria":"Arquitectura religiosa","idpoi":8650,"mp3_uri":null,"lang":"es-ES","lat":42.2290677797197}},{"geometry":{"coordinates":[-8.70778305465385,42.2349196113619],"type":"Point"},"type":"Feature","properties":{"address":"Vía Norte, 19","image_uri":"http://www.turismodevigo.org/sites/turismodevigo/files/lug287.jpg","postcode":"36206","description":"Destaca en la fachada de este templo una torre esbelta. Todo él está realizado en cantería. El interior destaca por su amplia capacidad -cerca de 500 personas sentadas- y su retablo.","lon":-8.70778305465385,"title":"Iglesia de Nuestra Señora de Fátima","type":37,"layer":"lugares","phone":null,"web":null,"subcategoria":"Arquitectura religiosa","idpoi":8651,"mp3_uri":null,"lang":"es-ES","lat":42.2349196113619}},{"geometry":{"coordinates":[-8.76485171983614,42.221375571677],"type":"Point"},"type":"Feature","properties":{"address":"Avenida Atlántica","image_uri":"http://www.turismodevigo.org/sites/turismodevigo/files/lug288.jpg","postcode":"36202","description":"Iglesia de tres naves, realizada en granito. Fue diseñada por el arquitecto Desiderio Pernas en el año 1997.","lon":-8.76485171983614,"title":"Iglesia de Alcabre","type":37,"layer":"lugares","phone":null,"web":null,"subcategoria":"Arquitectura religiosa","idpoi":8652,"mp3_uri":null,"lang":"es-ES","lat":42.221375571677}},{"geometry":{"coordinates":[-8.75324474070383,42.2264222293407],"type":"Point"},"type":"Feature","properties":{"address":"Eduardo Cabello, 61","image_uri":"http://www.turismodevigo.org/sites/turismodevigo/files/lug289.jpg","postcode":"36208","description":"Templo de base rectangular y ábside en semicírculo. En el exterior podemos apreciar el escudo de armas de los Peña y los Correa, siendo éste último -el capitán Álvaro Correa- quién la mandó construir en 1596.","lon":-8.75324474070383,"title":"Iglesia de Bouzas","type":37,"layer":"lugares","phone":null,"web":null,"subcategoria":"Arquitectura religiosa","idpoi":8653,"mp3_uri":null,"lang":"es-ES","lat":42.2264222293407}},{"geometry":{"coordinates":[-8.65673266263812,42.2232740248728],"type":"Point"},"type":"Feature","properties":{"address":"Parroquia de Cabral","image_uri":"http://www.turismodevigo.org/sites/turismodevigo/files/lug290.jpg","postcode":"36218","description":"El atrio de la iglesia es hoy en día una de los centros de reunión de la parroquia, muestra de ello es que el palco de la música se ha situado en esta zona.","lon":-8.65673266263812,"title":"Iglesia de Santa Marína de Cabral","type":37,"layer":"lugares","phone":null,"web":null,"subcategoria":"Arquitectura religiosa","idpoi":8654,"mp3_uri":null,"lang":"es-ES","lat":42.2232740248728}},{"geometry":{"coordinates":[-8.66516336412958,42.2418578743122],"type":"Point"},"type":"Feature","properties":{"address":"Camino de la Goleta, 1","image_uri":"http://www.turismodevigo.org/sites/turismodevigo/files/lug291.jpg","postcode":"36217","description":"En el interior se conservan pequeñas tallas de gran valor como la de San Cristóbal, de principios del s. XVIII y de estilo barroco, o la de San Benito.","lon":-8.66516336412958,"title":"Iglesia de San Cristobal de Candeán","type":37,"layer":"lugares","phone":null,"web":null,"subcategoria":"Arquitectura religiosa","idpoi":8655,"mp3_uri":null,"lang":"es-ES","lat":42.2418578743122}},{"geometry":{"coordinates":[-8.7538824107773,42.1994741721369],"type":"Point"},"type":"Feature","properties":{"address":"Carretera Matamá-Pazó","image_uri":"http://www.turismodevigo.org/sites/turismodevigo/files/lug292.jpg","postcode":"36213","description":"Lo más destacable es, en sí, el conjunto parroquial que está formado por la iglesia, el campo de la fiesta que la rodea, un palco, la casa parroquial y, algo más alejada, la Casa Rectoral.","lon":-8.7538824107773,"title":"Iglesia de San Andrés de Comesaña","type":37,"layer":"lugares","phone":null,"web":null,"subcategoria":"Arquitectura religiosa","idpoi":8656,"mp3_uri":null,"lang":"es-ES","lat":42.1994741721369}},{"geometry":{"coordinates":[-8.72096806541099,42.2378279820797],"type":"Point"},"type":"Feature","properties":{"address":"Policarpo Sanz, 31","image_uri":"http://www.turismodevigo.org/sites/turismodevigo/files/lug317.jpg","postcode":"36203","description":"La Fundación Pedro Barrié de la Maza es una entidad sin ánimo de lucro, de carácter privado, dedicada a promover el desarrollo de Galicia desde una perspectiva global.","lon":-8.72096806541099,"title":"Fundación Pedro Barrié de la Maza","type":37,"layer":"lugares","phone":"986110220","web":"www.fundacionbarrie.org/","subcategoria":"Auditorio","idpoi":8681,"mp3_uri":null,"lang":"es-ES","lat":42.2378279820797}},{"geometry":{"coordinates":[-8.7197763308682,42.2368496611794],"type":"Point"},"type":"Feature","properties":{"address":"Uruguay, 3-5","image_uri":"http://www.turismodevigo.org/sites/turismodevigo/files/lug307.jpg","postcode":"36201","description":"Fue diseñado para albergar un teatro y un cine de 1758 localidades, una sala de fiestas, un salón de té y oficinas de alquiler.","lon":-8.7197763308682,"title":"Teatro cine Fraga","type":37,"layer":"lugares","phone":null,"web":null,"subcategoria":"Teatro","idpoi":8671,"mp3_uri":null,"lang":"es-ES","lat":42.2368496611794}},{"geometry":{"coordinates":[-8.7234081251284,42.238057340574],"type":"Point"},"type":"Feature","properties":{"address":"Policarpo Sanz, 13","image_uri":"http://www.turismodevigo.org/sites/turismodevigo/files/lug308.jpg","postcode":"36203","description":"Es una de las obras arquitectónicas más emblemáticas de la ciudad. El actual edificio es consecuencia de la reconstrucción del antiguo teatro Rosalía de Castro, incendiado en 1910 cuando se celebraba un baile de carnaval.","lon":-8.7234081251284,"title":"Teatro García Barbón","type":37,"layer":"lugares","phone":null,"web":null,"subcategoria":"Teatro","idpoi":8672,"mp3_uri":null,"lang":"es-ES","lat":42.238057340574}},{"geometry":{"coordinates":[-8.72457969850464,42.2376957033825],"type":"Point"},"type":"Feature","properties":{"address":"Puerta del Sol","image_uri":"http://www.turismodevigo.org/sites/turismodevigo/files/lug309.jpg","postcode":"36203","description":"Edificio racionalista del arquitecto Romualdo de Madariaga, realizado en 1934 y promovido por las hermanas Elena y Práxedes Salgueiro García-Barbón.","lon":-8.72457969850464,"title":"Salgueiro García Barbón","type":37,"layer":"lugares","phone":null,"web":null,"subcategoria":"Arquitectura civil","idpoi":8673,"mp3_uri":null,"lang":"es-ES","lat":42.2376957033825}},{"geometry":{"coordinates":[-8.73184055509303,42.2199270979685],"type":"Point"},"type":"Feature","properties":{"address":"Plaza de América, 7","image_uri":"http://www.turismodevigo.org/sites/turismodevigo/files/lug310.jpg","postcode":"36210","description":"Se trata de una construcción con planta en forma de E, buscando una mayor iluminación y ventilación del interior. La fachada principal sigue un esquema ecléctico.","lon":-8.73184055509303,"title":"Instituto Santa Irene","type":37,"layer":"lugares","phone":"986210435","web":"www.edu.xunta.es/centros/iessantairene/","subcategoria":"Arquitectura civil","idpoi":8674,"mp3_uri":null,"lang":"es-ES","lat":42.2199270979685}},{"geometry":{"coordinates":[-8.72019562436622,42.2380478602696],"type":"Point"},"type":"Feature","properties":{"address":"Policarpo Sanz, 24","image_uri":"http://www.turismodevigo.org/sites/turismodevigo/files/lug311.jpg","postcode":"36201","description":"En la composición de las fachadas, observamos una retícula ordenada de vanos que carecen de ornamentación. En cada planta, en los chaflanes se colocaron balcones redondeados, siguiendo un esquema muy utilizado en ese período.","lon":-8.72019562436622,"title":"Edificio sede social Caixanova","type":37,"layer":"lugares","phone":null,"web":null,"subcategoria":"Arquitectura civil","idpoi":8675,"mp3_uri":null,"lang":"es-ES","lat":42.2380478602696}},{"geometry":{"coordinates":[-8.71241663342456,42.2315389647814],"type":"Point"},"type":"Feature","properties":{"address":"San vicente, 3","image_uri":"http://www.turismodevigo.org/sites/turismodevigo/files/lug312.jpg","postcode":"36204","description":"La Fundación Vigo Convention Bureau tiene como objetivo principal la promoción de la ciudad de Vigo como sede para la celebración de congresos, incentivos y todo tipo de eventos que atraigan visitantes y turismo de negocio a la ciudad.","lon":-8.71241663342456,"title":"Vigo Convention Bureau","type":37,"layer":"lugares","phone":"986487118","web":"www.vigoconventionbureau.com","subcategoria":"Centro de congresos","idpoi":8676,"mp3_uri":null,"lang":"es-ES","lat":42.2315389647814}},{"geometry":{"coordinates":[-8.72649447517727,42.2364146957037],"type":"Point"},"type":"Feature","properties":{"address":"Praza do Rei, s/n","image_uri":"http://www.turismodevigo.org/sites/turismodevigo/files/lug315.jpg","postcode":"36202","description":"Sede del consistorio de la ciudad de Vigo","lon":-8.72649447517727,"title":"Ayuntamiento de Vigo","type":37,"layer":"lugares","phone":"986810100","web":"www.hoxe.vigo.org","subcategoria":"Edificio público","idpoi":8679,"mp3_uri":null,"lang":"es-ES","lat":42.2364146957037}},{"geometry":{"coordinates":[-8.72677818586211,42.2364332439288],"type":"Point"},"type":"Feature","properties":{"address":"Praza do Rei, s/n","image_uri":"http://www.turismodevigo.org/sites/turismodevigo/files/lug316.jpg","postcode":"36202","description":"Espacio habilitado para la realización de eventos públicos.","lon":-8.72677818586211,"title":"Auditorio del Ayuntamiento de Vigo","type":37,"layer":"lugares","phone":"986810100","web":"www.hoxe.vigo.org","subcategoria":"Centro de congresos","idpoi":8680,"mp3_uri":null,"lang":"es-ES","lat":42.2364332439288}},{"geometry":{"coordinates":[-8.68545128291619,42.169749872297],"type":"Point"},"type":"Feature","properties":{"address":"Campus Universidade de Vigo","image_uri":"http://www.turismodevigo.org/sites/turismodevigo/files/lug318.jpg","postcode":"36310","description":"Espacio habilitado para la realización de eventos públicos.","lon":-8.68545128291619,"title":"Sala de Congresos (auditorio) de la Ciudad Universitaria de Vigo","type":37,"layer":"lugares","phone":"986813639","web":"www.uvigo.es/uvigo_es/administracion/extension/","subcategoria":"Auditorio","idpoi":8682,"mp3_uri":null,"lang":"es-ES","lat":42.169749872297}},{"geometry":{"coordinates":[-8.68285424724108,42.1676576455584],"type":"Point"},"type":"Feature","properties":{"address":"Campus Universidade de Vigo","image_uri":"http://www.turismodevigo.org/sites/turismodevigo/files/lug306.jpg","postcode":"36310","description":"Sala de lectura y servicio de préstamo de gran demanda y creciente utilización.","lon":-8.68285424724108,"title":"Biblioteca de la Facultad de Ciencias jurídicas","type":37,"layer":"lugares","phone":"986812658","web":"www.uvigo.es/uvigo_es/Centros/vigo/lagoas_marcosende/fac_ciencias_xuridicas.html","subcategoria":"Biblioteca","idpoi":8670,"mp3_uri":null,"lang":"es-ES","lat":42.1676576455584}},{"geometry":{"coordinates":[-8.68825124573733,42.1696931749901],"type":"Point"},"type":"Feature","properties":{"address":"Campus Universidade de Vigo","image_uri":"http://www.turismodevigo.org/sites/turismodevigo/files/lug305.jpg","postcode":"36310","description":"Sala de lectura y servicio de préstamo de gran demanda y creciente utilización.","lon":-8.68825124573733,"title":"Biblioteca de la E.T.S. de Ingenieros de Telecomunicaciones","type":37,"layer":"lugares","phone":"986812105","web":"www.teleco.uvigo.es/","subcategoria":"Biblioteca","idpoi":8669,"mp3_uri":null,"lang":"es-ES","lat":42.1696931749901}},{"geometry":{"coordinates":[-8.7003524420609,42.2322826043943],"type":"Point"},"type":"Feature","properties":{"address":"Calle del Cronista J. Espinosa","image_uri":"http://www.turismodevigo.org/sites/turismodevigo/files/lug294.jpg","postcode":"36205","description":"Esta iglesia, situada en el popular barrio del Calvario, sigue una línea arquitectónica inspirada en Le Corbusier.","lon":-8.7003524420609,"title":"Iglesia de la Inmaculada Concepción","type":37,"layer":"lugares","phone":null,"web":null,"subcategoria":"Arquitectura religiosa","idpoi":8658,"mp3_uri":null,"lang":"es-ES","lat":42.2322826043943}},{"geometry":{"coordinates":[-8.7274456961174,42.2176868684656],"type":"Point"},"type":"Feature","properties":{"address":"Parroquia de O Freixeiro","image_uri":"http://www.turismodevigo.org/sites/turismodevigo/files/lug293.jpg","postcode":"36210","description":"Iglesia de una sola nave de planta rectangular. El presbiterio tiene bóveda de piedra; los muros que sostienen a ésta presentan una serie de sepulcros.","lon":-8.7274456961174,"title":"Iglesia de Freixeiro","type":37,"layer":"lugares","phone":null,"web":null,"subcategoria":"Arquitectura religiosa","idpoi":8657,"mp3_uri":null,"lang":"es-ES","lat":42.2176868684656}},{"geometry":{"coordinates":[-8.70172942221668,42.2307559884331],"type":"Point"},"type":"Feature","properties":{"address":"Calle Portela 6, 1º","image_uri":"http://www.turismodevigo.org/sites/turismodevigo/files/lug295.jpg","postcode":"36205","description":"Sala de lectura y servicio de préstamo de gran demanda y creciente utilización.","lon":-8.70172942221668,"title":"Biblioteca Caixanova. Calvario","type":37,"layer":"lugares","phone":"986252435","web":null,"subcategoria":"Biblioteca","idpoi":8659,"mp3_uri":null,"lang":"es-ES","lat":42.2307559884331}},{"geometry":{"coordinates":[-8.73344806069799,42.2208941029241],"type":"Point"},"type":"Feature","properties":{"address":"Plaza de América 3- entresuelo","image_uri":"http://www.turismodevigo.org/sites/turismodevigo/files/lug296.jpg","postcode":"36208","description":"Sala de lectura y servicio de préstamo de gran demanda y creciente utilización.","lon":-8.73344806069799,"title":"Biblioteca Caixanova. Travesas","type":37,"layer":"lugares","phone":"986231518","web":null,"subcategoria":"Biblioteca","idpoi":8660,"mp3_uri":null,"lang":"es-ES","lat":42.2208941029241}},{"geometry":{"coordinates":[-8.72534375397711,42.238679252679],"type":"Point"},"type":"Feature","properties":{"address":"Joaquín Yánez, 6","image_uri":"http://www.turismodevigo.org/sites/turismodevigo/files/lug297.jpg","postcode":"36202","description":"Sala de lectura y servicio de préstamo de gran demanda y creciente utilización.","lon":-8.72534375397711,"title":"Biblioteca Central","type":37,"layer":"lugares","phone":"986229074","web":"http://rbgalicia.xunta.es/vigo/","subcategoria":"Biblioteca","idpoi":8661,"mp3_uri":null,"lang":"es-ES","lat":42.238679252679}},{"geometry":{"coordinates":[-8.71877215510236,42.2365969972409],"type":"Point"},"type":"Feature","properties":{"address":"República Argentina, 18","image_uri":"http://www.turismodevigo.org/sites/turismodevigo/files/lug298.jpg","postcode":"36201","description":"Sala de lectura y servicio de préstamo de gran demanda y creciente utilización.","lon":-8.71877215510236,"title":"Biblioteca de la Cámara de Comercio de Vigo","type":37,"layer":"lugares","phone":"986446343","web":"http://www.camaravigo.com","subcategoria":"Biblioteca","idpoi":8662,"mp3_uri":null,"lang":"es-ES","lat":42.2365969972409}},{"geometry":{"coordinates":[-8.7256823195269,42.2383160280706],"type":"Point"},"type":"Feature","properties":{"address":"Plaza de la Princesa, 2","image_uri":"http://www.turismodevigo.org/sites/turismodevigo/files/lug299.jpg","postcode":"36202","description":"Sala de lectura y servicio de préstamo de gran demanda y creciente utilización.","lon":-8.7256823195269,"title":"Biblioteca de la Fundación","type":37,"layer":"lugares","phone":"986226459","web":null,"subcategoria":"Biblioteca","idpoi":8663,"mp3_uri":null,"lang":"es-ES","lat":42.2383160280706}},{"geometry":{"coordinates":[-8.72342661117205,42.2378912174353],"type":"Point"},"type":"Feature","properties":{"address":"Policarpo Sánz, 13","image_uri":"http://www.turismodevigo.org/sites/turismodevigo/files/lug300.jpg","postcode":"36202","description":"Sala de lectura y servicio de préstamo de gran demanda y creciente utilización.","lon":-8.72342661117205,"title":"Biblioteca Centro Cultural Caixanova","type":37,"layer":"lugares","phone":"986447369","web":null,"subcategoria":"Biblioteca","idpoi":8664,"mp3_uri":null,"lang":"es-ES","lat":42.2378912174353}},{"geometry":{"coordinates":[-8.81311310160395,42.1839418974653],"type":"Point"},"type":"Feature","properties":{"address":"Subida a Radio Faro 50-52","image_uri":"http://www.turismodevigo.org/sites/turismodevigo/files/lug301.jpg","postcode":"36390","description":"Sala de lectura y servicio de préstamo de gran demanda y creciente utilización.","lon":-8.81311310160395,"title":"Biblioteca del Centro Oceanográfico de Vigo","type":37,"layer":"lugares","phone":"986492111","web":"www.ieo.es/biblioteca.html","subcategoria":"Biblioteca","idpoi":8665,"mp3_uri":null,"lang":"es-ES","lat":42.1839418974653}},{"geometry":{"coordinates":[-8.75221907436888,42.2258258094774],"type":"Point"},"type":"Feature","properties":{"address":"Eduardo Cabello, 6","image_uri":"http://www.turismodevigo.org/sites/turismodevigo/files/lug302.jpg","postcode":"36208","description":"Sala de lectura y servicio de préstamo de gran demanda y creciente utilización.","lon":-8.75221907436888,"title":"Biblioteca del Instituto de Investigaciones Marinas","type":37,"layer":"lugares","phone":"986214454","web":"www.iim.csic.es/","subcategoria":"Biblioteca","idpoi":8666,"mp3_uri":null,"lang":"es-ES","lat":42.2258258094774}},{"geometry":{"coordinates":[-8.73104669745821,42.2179067345851],"type":"Point"},"type":"Feature","properties":{"address":"Pastora, 22","image_uri":"http://www.turismodevigo.org/sites/turismodevigo/files/lug303.jpg","postcode":"36210","description":"Sala de lectura y servicio de préstamo de gran demanda y creciente utilización.","lon":-8.73104669745821,"title":"Biblioteca del Museo Etnográfico, Fundación Liste","type":37,"layer":"lugares","phone":"986244698","web":"www.museoliste.org/index.php?pag=fundacion","subcategoria":"Biblioteca","idpoi":8667,"mp3_uri":null,"lang":"es-ES","lat":42.2179067345851}},{"geometry":{"coordinates":[-8.68513460688203,42.1677211171346],"type":"Point"},"type":"Feature","properties":{"address":"Campus Universidade de Vigo","image_uri":"http://www.turismodevigo.org/sites/turismodevigo/files/lug304.jpg","postcode":"36310","description":"Sala de lectura y servicio de préstamo de gran demanda y creciente utilización.","lon":-8.68513460688203,"title":"Biblioteca de la Facultad de Ciencias del Mar y Biología","type":37,"layer":"lugares","phone":"986812552","web":"www.facultadeccdomar.es/","subcategoria":"Biblioteca","idpoi":8668,"mp3_uri":null,"lang":"es-ES","lat":42.1677211171346}},{"geometry":{"coordinates":[-8.73171296966416,42.2236778929434],"type":"Point"},"type":"Feature","properties":{"address":"Paseo Padre Lorenzo, 2","image_uri":"http://www.turismodevigo.org/sites/turismodevigo/files/lug178.jpg","postcode":"36211","description":"Los terrenos sobre los que se asienta la iglesia fueron donados por Doña Paula Gómez Curieses, en los años 1936 -1939. La primera piedra fue colocada en 1951, el 18 de marzo.","lon":-8.73171296966416,"title":"Iglesia del Carmen","type":37,"layer":"lugares","phone":null,"web":null,"subcategoria":"Arquitectura religiosa","idpoi":8546,"mp3_uri":null,"lang":"es-ES","lat":42.2236778929434}},{"geometry":{"coordinates":[-8.71178856116699,42.2172606841915],"type":"Point"},"type":"Feature","properties":{"address":"Parroquia de Sárdoma","image_uri":"http://www.turismodevigo.org/sites/turismodevigo/files/lug179.jpg","postcode":"36214","description":"El conjunto parroquial está formado por la iglesia, el atrio y el cementerio, que, junto a la Casa Rectoral, constituyen un ejemplo destacado en la parroquia.","lon":-8.71178856116699,"title":"Iglesia de San Pedro de Sárdoma","type":37,"layer":"lugares","phone":null,"web":null,"subcategoria":"Arquitectura religiosa","idpoi":8547,"mp3_uri":null,"lang":"es-ES","lat":42.2172606841915}},{"geometry":{"coordinates":[-8.80469253389744,42.1677162446445],"type":"Point"},"type":"Feature","properties":{"address":"Calle Eira Vella","image_uri":"http://www.turismodevigo.org/sites/turismodevigo/files/lug180.jpg","postcode":"36392","description":"Iglesia de inspiración gótica en la ojiva de las ventanas y barroca en el juego de volúmenes y en algunos detalles como la hornacina","lon":-8.80469253389744,"title":"Iglesia de San Jorge de Saiáns","type":37,"layer":"lugares","phone":null,"web":null,"subcategoria":"Arquitectura religiosa","idpoi":8548,"mp3_uri":null,"lang":"es-ES","lat":42.1677162446445}},{"geometry":{"coordinates":[-8.80111689227044,42.1826495750421],"type":"Point"},"type":"Feature","properties":{"address":"Carretera de la Igrexa, Roteas","image_uri":"http://www.turismodevigo.org/sites/turismodevigo/files/lug181.jpg","postcode":"36390","description":"Esta iglesia es un ejemplo del modelo tradicional del rural gallego. Es de planta longitudinal sencilla, con una sola nave cubierta a dos aguas.","lon":-8.80111689227044,"title":"Iglesia de Oia","type":37,"layer":"lugares","phone":null,"web":null,"subcategoria":"Arquitectura religiosa","idpoi":8549,"mp3_uri":null,"lang":"es-ES","lat":42.1826495750421}},{"geometry":{"coordinates":[-8.72244239295161,42.2366101395826],"type":"Point"},"type":"Feature","properties":{"address":"Calle Príncipe, 44","image_uri":"http://www.turismodevigo.org/sites/turismodevigo/files/lug183.jpg","postcode":"36202","description":"El edificio es de estilo ecléctico con una composición clasicista. Fue realizado por el arquitecto Manuel Gómez Román en el año 1921","lon":-8.72244239295161,"title":"Círculo Mercantil","type":37,"layer":"lugares","phone":null,"web":null,"subcategoria":"Edificio singular","idpoi":8550,"mp3_uri":null,"lang":"es-ES","lat":42.2366101395826}},{"geometry":{"coordinates":[-8.72809399688459,42.2379065853052],"type":"Point"},"type":"Feature","properties":{"address":"Plaza de Almeida, 2","image_uri":"http://www.turismodevigo.org/sites/turismodevigo/files/lug184.jpg","postcode":"36202","description":"Palacete urbano del siglo XV enmarcado en el estilo gótico tardío. Tiene aspecto de torreón medieval y está costruído sobres sillares de piedra.","lon":-8.72809399688459,"title":"Casa de Ceta","type":37,"layer":"lugares","phone":null,"web":null,"subcategoria":"Arquitectura civil","idpoi":8551,"mp3_uri":null,"lang":"es-ES","lat":42.2379065853052}},{"geometry":{"coordinates":[-8.76715068780414,42.2079828474107],"type":"Point"},"type":"Feature","properties":{"address":"Parroquia de San Paio de Navia","image_uri":"http://www.turismodevigo.org/sites/turismodevigo/files/lug185.jpg","postcode":"36212","description":"Tras finalizar su proyecto de la iglesia de Inmaculada Concepción en el barrio del Calvario, Román Conde se embarca en la construcción de esta nueva iglesia en la parroquia de Sampaio de Navia, en la que logrará un juego de volúmenes más sosegado.","lon":-8.76715068780414,"title":"Iglesia de Navia (nueva)","type":37,"layer":"lugares","phone":null,"web":null,"subcategoria":"Arquitectura religiosa","idpoi":8552,"mp3_uri":null,"lang":"es-ES","lat":42.2079828474107}},{"geometry":{"coordinates":[-8.76750542284277,42.2071447719605],"type":"Point"},"type":"Feature","properties":{"address":"Parroquia de San Paio de Navia","image_uri":"http://www.turismodevigo.org/sites/turismodevigo/files/lug187.jpg","postcode":"36212","description":"La actual iglesia se basa en una ampliación de la antigua capilla de 1900. En el interior se encuentra un retablo de estilo barroco, que también ha sufrido reformas.","lon":-8.76750542284277,"title":"Iglesia de Navia","type":37,"layer":"lugares","phone":null,"web":null,"subcategoria":"Arquitectura religiosa","idpoi":8553,"mp3_uri":null,"lang":"es-ES","lat":42.2071447719605}},{"geometry":{"coordinates":[-8.77704244653249,42.1873722995241],"type":"Point"},"type":"Feature","properties":{"address":"A Taberna, s/n","image_uri":"http://www.turismodevigo.org/sites/turismodevigo/files/lug159.jpg","postcode":"36391","description":"En el reverso muestra la Piedad, de pie y sosteniendo el cuerpo de su hijo muerto","lon":-8.77704244653249,"title":"Cruceiro de Taberna","type":37,"layer":"lugares","phone":null,"web":null,"subcategoria":"Arquitectura religiosa","idpoi":8533,"mp3_uri":null,"lang":"es-ES","lat":42.1873722995241}},{"geometry":{"coordinates":[-8.73030046908426,42.2358539720406],"type":"Point"},"type":"Feature","properties":{"address":"Poboadores, s/n","image_uri":"http://www.turismodevigo.org/sites/turismodevigo/files/lug160.jpg","postcode":"36202","description":"Es un crucero con doble función. La parte inferior es un peto de ánimas y la superior es un crucero.","lon":-8.73030046908426,"title":"Cruceiro da rúa Poboadores","type":37,"layer":"lugares","phone":null,"web":null,"subcategoria":"Arquitectura religiosa","idpoi":8534,"mp3_uri":null,"lang":"es-ES","lat":42.2358539720406}},{"geometry":{"coordinates":[-8.72407492468296,42.1776165905781],"type":"Point"},"type":"Feature","properties":{"address":"A Igrexa, s/n","image_uri":"http://www.turismodevigo.org/sites/turismodevigo/files/lug162.jpg","postcode":"36314","description":"La cruz es cuadrada y en el anverso tiene la crucifixión, y en el reverso a la Piedad con el hijo en brazos, mucho más pequeño que la madre.","lon":-8.72407492468296,"title":"Cruceiro do adro da igrexa de Valadares","type":37,"layer":"lugares","phone":null,"web":null,"subcategoria":"Arquitectura religiosa","idpoi":8536,"mp3_uri":null,"lang":"es-ES","lat":42.1776165905781}},{"geometry":{"coordinates":[-8.71934207260909,42.2358124686976],"type":"Point"},"type":"Feature","properties":{"address":"Urzaiz, 5","image_uri":"http://www.turismodevigo.org/sites/turismodevigo/files/lug163.jpg","postcode":"36201","description":"El edificio fue diseñado en 1946 por el arquitecto Pascual Bravo Sanfeliú. Este edificio destaca por su altura y juego de volúmenes en la parte superior.","lon":-8.71934207260909,"title":"Edificio José Mouriño Vilas","type":37,"layer":"lugares","phone":null,"web":null,"subcategoria":"Arquitectura civil","idpoi":8537,"mp3_uri":null,"lang":"es-ES","lat":42.2358124686976}},{"geometry":{"coordinates":[-8.71688940745036,42.2333214606006],"type":"Point"},"type":"Feature","properties":{"address":"Gran Vía, 15","image_uri":"http://www.turismodevigo.org/sites/turismodevigo/files/lug167.jpg","postcode":"36203","description":"Espacio de dedicado a la lectura y préstamo de libros con ejemplares adaptados a las necesidades de los deficientes visuales.","lon":-8.71688940745036,"title":"Biblioteca Braille de la Once","type":37,"layer":"lugares","phone":"986227208","web":null,"subcategoria":"Biblioteca","idpoi":8538,"mp3_uri":null,"lang":"es-ES","lat":42.2333214606006}},{"geometry":{"coordinates":[-8.73462744813371,42.2272984318301],"type":"Point"},"type":"Feature","properties":{"address":"Torrecedeira, 86","image_uri":"http://www.turismodevigo.org/sites/turismodevigo/files/lug170.jpg","postcode":"36208","description":"Sala de lectura y servicio de préstamo de gran demanda y creciente utilización.","lon":-8.73462744813371,"title":"Biblioteca de Torrecedeira","type":37,"layer":"lugares","phone":"986813739","web":null,"subcategoria":"Biblioteca","idpoi":8539,"mp3_uri":null,"lang":"es-ES","lat":42.2272984318301}},{"geometry":{"coordinates":[-8.74530933738075,42.2208535634188],"type":"Point"},"type":"Feature","properties":{"address":"Plaza da Consolación","image_uri":"http://www.turismodevigo.org/sites/turismodevigo/files/lug161.jpg","postcode":"36208","description":"Solamente se conserva la columna con la cruz.","lon":-8.74530933738075,"title":"Cruceiro da fachada da igrexa da Consolación","type":37,"layer":"lugares","phone":null,"web":null,"subcategoria":"Arquitectura religiosa","idpoi":8535,"mp3_uri":null,"lang":"es-ES","lat":42.2208535634188}},{"geometry":{"coordinates":[-8.70260156017203,42.256191539078],"type":"Point"},"type":"Feature","properties":{"address":"A Guía","image_uri":"http://www.turismodevigo.org/sites/turismodevigo/files/lug172.jpg","postcode":"36207","description":"Crucero con base cuadrangular sobre una afloración granítica.","lon":-8.70260156017203,"title":"Cruceiro da Guía","type":37,"layer":"lugares","phone":null,"web":null,"subcategoria":"Arquitectura religiosa","idpoi":8540,"mp3_uri":null,"lang":"es-ES","lat":42.256191539078}},{"geometry":{"coordinates":[-8.80215958086106,42.1824621323533],"type":"Point"},"type":"Feature","properties":{"address":"O Cruceiro, s/n","image_uri":"http://www.turismodevigo.org/sites/turismodevigo/files/lug173.jpg","postcode":"36390","description":"En cada cara aparecen caras de ángeles, excepto en la cara anterior, bajo el Cristo donde aparece una calavera representando el monte Gólgota.","lon":-8.80215958086106,"title":"Cruceiro de Cruceiro","type":37,"layer":"lugares","phone":null,"web":null,"subcategoria":"Arquitectura religiosa","idpoi":8541,"mp3_uri":null,"lang":"es-ES","lat":42.1824621323533}},{"geometry":{"coordinates":[-8.77662209131498,42.1886496254623],"type":"Point"},"type":"Feature","properties":{"address":"A Igrexa, s/n","image_uri":"http://www.turismodevigo.org/sites/turismodevigo/files/lug174.jpg","postcode":"36391","description":"Representa la crucifixión, donde Cristo tiene tres clavos, las piernas flexionadas y la cabeza ladeada. En el reverso se muestra la Piedad, con un Cristo ligeramente menor que la Virgen.","lon":-8.77662209131498,"title":"Cruceiro do adro da igrexa de Coruxo","type":37,"layer":"lugares","phone":null,"web":null,"subcategoria":"Arquitectura religiosa","idpoi":8542,"mp3_uri":null,"lang":"es-ES","lat":42.1886496254623}},{"geometry":{"coordinates":[-8.7047242214613,42.2430174691154],"type":"Point"},"type":"Feature","properties":{"address":"Montecelo, 14","image_uri":"http://www.turismodevigo.org/sites/turismodevigo/files/lug175.jpg","postcode":"36207","description":"El monasterio de la Visitación de las Salesas Reales fue proyectado en 1942 por el arquitecto Antonio Palacios. Está situado en el barrio de la Calzada de Teis, próximo a la calle Sanjurjo Badía.","lon":-8.7047242214613,"title":"Mosteiro da Visitación das Salesas Reais","type":37,"layer":"lugares","phone":null,"web":null,"subcategoria":"Monasterio","idpoi":8543,"mp3_uri":null,"lang":"es-ES","lat":42.2430174691154}},{"geometry":{"coordinates":[-8.73806158328729,42.199579059208],"type":"Point"},"type":"Feature","properties":{"address":"Calle de los Canteiros","image_uri":"http://www.turismodevigo.org/sites/turismodevigo/files/lug196.jpg","postcode":"36213","description":"Esta es una iglesia con una gran torre en el campanario, según los viejos libros de texto. En la iglesia hay un viejo retablo que perteneció a la antigua Colegiata de Santa María y que fue adquirido por 3000 reales","lon":-8.73806158328729,"title":"Iglesia de Matamá","type":37,"layer":"lugares","phone":null,"web":null,"subcategoria":"Arquitectura religiosa","idpoi":8561,"mp3_uri":null,"lang":"es-ES","lat":42.199579059208}},{"geometry":{"coordinates":[-8.73847980073568,42.200964744919],"type":"Point"},"type":"Feature","properties":{"address":"A Igrexa, s/n","image_uri":"http://www.turismodevigo.org/sites/turismodevigo/files/lug197.jpg","postcode":"36213","description":"Como única representación tiene a Cristo crucificado con tres clavos.","lon":-8.73847980073568,"title":"Cruceiro do adro da igrexa de Comesaña","type":37,"layer":"lugares","phone":null,"web":null,"subcategoria":"Arquitectura religiosa","idpoi":8562,"mp3_uri":null,"lang":"es-ES","lat":42.200964744919}},{"geometry":{"coordinates":[-8.72105606399042,42.2391518223023],"type":"Point"},"type":"Feature","properties":{"address":"Plaza de Compostela, 17","image_uri":"http://www.turismodevigo.org/sites/turismodevigo/files/lug121.jpg","postcode":"36201","description":"Ejemplo de eclecticismo moderno el edificio tiene una cornisa decorada, unos balcones con refuerzos de piedra y barandillas de hierro. Como material constructivo se ha utilizado el granito de la Sierra de Castrelos.","lon":-8.72105606399042,"title":"Vivendas irmáns Suárez Eire/Purificación Suárez","type":37,"layer":"lugares","phone":null,"web":null,"subcategoria":"Arquitectura civil","idpoi":8499,"mp3_uri":null,"lang":"es-ES","lat":42.2391518223023}},{"geometry":{"coordinates":[-8.71807674533958,42.2365210720317],"type":"Point"},"type":"Feature","properties":{"address":"Uruguay, 11","image_uri":"http://www.turismodevigo.org/sites/turismodevigo/files/lug120.jpg","postcode":"36201","description":"Edificio eclepticista proyectado por Genaro de la Fuente.","lon":-8.71807674533958,"title":"Vivendas da rúa Uruguay","type":37,"layer":"lugares","phone":null,"web":null,"subcategoria":"Arquitectura civil","idpoi":8498,"mp3_uri":null,"lang":"es-ES","lat":42.2365210720317}},{"geometry":{"coordinates":[-8.70338304041177,42.2441463483087],"type":"Point"},"type":"Feature","properties":{"address":"Sanjurjo Badía y Coutadas","image_uri":"http://www.turismodevigo.org/sites/turismodevigo/files/lug119.jpg","postcode":"36207","description":"Se trata de un edificio diseñado por Antonio Palacios siguiendo un estilo regionalista aunque con cierto aire medieval. Data de 1942","lon":-8.70338304041177,"title":"Visitación de las Salesas Reales","type":37,"layer":"lugares","phone":null,"web":null,"subcategoria":"Arquitectura religiosa","idpoi":8497,"mp3_uri":null,"lang":"es-ES","lat":42.2441463483087}},{"geometry":{"coordinates":[-8.80652151571956,42.1672680419837],"type":"Point"},"type":"Feature","properties":{"address":"Bajada a la Playa s/n. Saians.","image_uri":"http://www.turismodevigo.org/sites/turismodevigo/files/lug123.jpg","postcode":"36392","description":"Se trata de una iniciativa pionera en Galicia que pretende oordinar, controlar, integrar, racionar y orientar todas las iniciativas en relación con la divulgación, didáctica y puesta en valor de la riqueza arqueológica de Vigo.","lon":-8.80652151571956,"title":"Centro de Divulgación Arqueolóxico Municipal","type":37,"layer":"lugares","phone":"986460812","web":null,"subcategoria":"Arquitectura civil","idpoi":8501,"mp3_uri":null,"lang":"es-ES","lat":42.1672680419837}},{"geometry":{"coordinates":[-8.72471713210472,42.177619128566],"type":"Point"},"type":"Feature","properties":{"address":"Parroquia de Valadares","image_uri":"http://www.turismodevigo.org/sites/turismodevigo/files/lug124.jpg","postcode":"36314","description":"Iglesia rectangular, con nave única, cabecera cuadrada y torre campanario adosada a la fachada, la cual muestra una portada rematada por un frontón que enmarca la representación de san Andrés.","lon":-8.72471713210472,"title":"Iglesia de Valadares","type":37,"layer":"lugares","phone":null,"web":null,"subcategoria":"Arquitectura religiosa","idpoi":8502,"mp3_uri":null,"lang":"es-ES","lat":42.177619128566}},{"geometry":{"coordinates":[-8.69070657279798,42.1582897739415],"type":"Point"},"type":"Feature","properties":{"address":"Cerca del embalse de Zamáns","image_uri":"http://www.turismodevigo.org/sites/turismodevigo/files/lug125.jpg","postcode":"36310","description":"Se trata de un conjunto etnográfico formado por dos molinos. El principal, además de molino también es vivienda. Ambos conservan todos los canales ya acueductos que llevaban el agua para poner en marcha el molino.","lon":-8.69070657279798,"title":"Muíño Maquías","type":37,"layer":"lugares","phone":null,"web":null,"subcategoria":"Arquitectura popular","idpoi":8503,"mp3_uri":null,"lang":"es-ES","lat":42.1582897739415}},{"geometry":{"coordinates":[-8.70648379353185,42.1921964838636],"type":"Point"},"type":"Feature","properties":{"address":"A Igrexa, s/n","image_uri":"http://www.turismodevigo.org/sites/turismodevigo/files/lug126.jpg","postcode":"36312","description":"La iglesia actual data del siglo XVII. En su atrio se encuentra un crucero, de origen desconocido, que se situó en ese lugar alrededor del 1854.","lon":-8.70648379353185,"title":"Iglesia de Santo Estevo de Beade","type":37,"layer":"lugares","phone":null,"web":null,"subcategoria":"Arquitectura religiosa","idpoi":8504,"mp3_uri":null,"lang":"es-ES","lat":42.1921964838636}},{"geometry":{"coordinates":[-8.68673752412871,42.2038660672611],"type":"Point"},"type":"Feature","properties":{"address":"Parroquia de Bembrive","image_uri":"http://www.turismodevigo.org/sites/turismodevigo/files/lug128.jpg","postcode":"36313","description":"Esta iglesia sufre varias modificaciones a lo largo de su historia. Las piedras trabajadas de sus muros hablan de la posible existencia de una edificación menor.","lon":-8.68673752412871,"title":"Iglesia de Santiago de Bembrive","type":37,"layer":"lugares","phone":null,"web":null,"subcategoria":"Arquitectura religiosa","idpoi":8505,"mp3_uri":null,"lang":"es-ES","lat":42.2038660672611}},{"geometry":{"coordinates":[-8.69837559675137,42.206352898672],"type":"Point"},"type":"Feature","properties":{"address":"Baruxáns, s/n","image_uri":"http://www.turismodevigo.org/sites/turismodevigo/files/lug129.jpg","postcode":"36214","description":"El Cristo do Cacheno es uno de los cruceiros más sobresalientes de Galicia.","lon":-8.69837559675137,"title":"Cristo do Cacheno","type":37,"layer":"lugares","phone":null,"web":null,"subcategoria":"Arquitectura religiosa","idpoi":8506,"mp3_uri":null,"lang":"es-ES","lat":42.206352898672}},{"geometry":{"coordinates":[-8.6849793333006,42.170191153903],"type":"Point"},"type":"Feature","properties":{"address":"Campus Universidade de Vigo","image_uri":"http://www.turismodevigo.org/sites/turismodevigo/files/lug117.jpg","postcode":"36310","description":"Forma parte del conjunto de Lagoas-Marcosende (centro comercial, aulario y teatro) diseñado por el arquitecto Enric Miralles.","lon":-8.6849793333006,"title":"Reitorado da Universidade de Vigo","type":37,"layer":"lugares","phone":null,"web":null,"subcategoria":"Arquitectura civil","idpoi":8496,"mp3_uri":null,"lang":"es-ES","lat":42.170191153903}},{"geometry":{"coordinates":[-8.71116081833371,42.2272026817145],"type":"Point"},"type":"Feature","properties":{"address":"San Roque","image_uri":"http://www.turismodevigo.org/sites/turismodevigo/files/lug116.jpg","postcode":"36204","description":"Se trata de una propiedad privada no visitable aunque en la actualidad el parque de este magnífico edificio está abierto al público.","lon":-8.71116081833371,"title":"Pazo de San Roque","type":37,"layer":"lugares","phone":null,"web":null,"subcategoria":"Edificio histórico","idpoi":8495,"mp3_uri":null,"lang":"es-ES","lat":42.2272026817145}},{"geometry":{"coordinates":[-8.69810573715797,42.2291469204331],"type":"Point"},"type":"Feature","properties":{"address":"Callejón de Rivera Atienza","image_uri":null,"postcode":"36205","description":"Destacar la amplia solana que se abre en la fachada posterior del edificio así como el imponente portalón de entrada en el que hay un escudo ovalado.","lon":-8.69810573715797,"title":"Pazo de Rivera Atienza","type":37,"layer":"lugares","phone":"986261859","web":null,"subcategoria":"Edificio histórico","idpoi":8494,"mp3_uri":null,"lang":"es-ES","lat":42.2291469204331}},{"geometry":{"coordinates":[-8.72897226962498,42.2358186024561],"type":"Point"},"type":"Feature","properties":{"address":"Pi y Margall, nº 2","image_uri":"http://www.turismodevigo.org/sites/turismodevigo/files/lug104.jpg","postcode":"36202","description":"El proyecto del edificio es de estilo neogótico y aparece firmado por el arquitecto Manuel Felipe Quintana en 1892, aunque las obras se terminaron en 1910.","lon":-8.72897226962498,"title":"Iglesia Asilo das Irmanciñas dos Pobres","type":37,"layer":"lugares","phone":null,"web":null,"subcategoria":"Arquitectura religiosa","idpoi":8484,"mp3_uri":null,"lang":"es-ES","lat":42.2358186024561}},{"geometry":{"coordinates":[-8.77532564412162,42.1897048190268],"type":"Point"},"type":"Feature","properties":{"address":"Parroquia de Coruxo. Valle del Fragoso","image_uri":"http://www.turismodevigo.org/sites/turismodevigo/files/lug105.jpg","postcode":"36391","description":"La actual iglesia fue, en su origen, una iglesia monasterial. Tiene planta basilical de tres naves y tres ábsides semicirculares, siendo el central más ancho y elevado.","lon":-8.77532564412162,"title":"Iglesia de San Salvador de Coruxo","type":37,"layer":"lugares","phone":null,"web":null,"subcategoria":"Arquitectura religiosa","idpoi":8485,"mp3_uri":null,"lang":"es-ES","lat":42.1897048190268}},{"geometry":{"coordinates":[-8.69560585941034,42.2277580653161],"type":"Point"},"type":"Feature","properties":{"address":"Santa Cristina, s/n","image_uri":"http://www.turismodevigo.org/sites/turismodevigo/files/lug106.jpg","postcode":"36214","description":"Iglesia de estilo románico, aunque desgraciadamente ha perdido gran parte de sus elementos románicos. Se lleva a cabo una remodelación en el último tercio del siglo XIX sobre el antiguo edificio.","lon":-8.69560585941034,"title":"Iglesia de Santa Cristina","type":37,"layer":"lugares","phone":null,"web":null,"subcategoria":"Arquitectura religiosa","idpoi":8486,"mp3_uri":null,"lang":"es-ES","lat":42.2277580653161}},{"geometry":{"coordinates":[-8.72568075883542,42.2105307739239],"type":"Point"},"type":"Feature","properties":{"address":"Rúa A Pastora","image_uri":"http://www.turismodevigo.org/sites/turismodevigo/files/lug107.jpg","postcode":"36213","description":"Es el templo mejor conservado  del románico vigués, junto con la de Santiago de Bembrive y la de San Salvador de Corujo. Data del año 1216.","lon":-8.72568075883542,"title":"Iglesia de Santa María de Castrelos","type":37,"layer":"lugares","phone":null,"web":null,"subcategoria":"Arquitectura religiosa","idpoi":8487,"mp3_uri":null,"lang":"es-ES","lat":42.2105307739239}},{"geometry":{"coordinates":[-8.71797819437348,42.2368802993843],"type":"Point"},"type":"Feature","properties":{"address":"Avda García Barbón, s/n","image_uri":"http://www.turismodevigo.org/sites/turismodevigo/files/lug108.jpg","postcode":"36201","description":"Su elaboración se encarga a Manuel Felipe Quintana, quién en 1896 redacta definitivamente el proyecto. La iglesia tiene un corte medieval historicista; su fachada principal muestra un estilo neogótico.","lon":-8.71797819437348,"title":"Iglesia de Santiago O Maior","type":37,"layer":"lugares","phone":null,"web":null,"subcategoria":"Arquitectura religiosa","idpoi":8488,"mp3_uri":null,"lang":"es-ES","lat":42.2368802993843}},{"geometry":{"coordinates":[-8.72588257725417,42.2205364372103],"type":"Point"},"type":"Feature","properties":{"address":"Rúa do Conde","image_uri":"http://www.turismodevigo.org/sites/turismodevigo/files/lug111.jpg","postcode":"36210","description":"Se trata de una propiedad privada no visitable. Destaca el magnífico escudo de la fachada que presenta curiosos detalles escultóricos. La fachada suoreste data de 1815.","lon":-8.72588257725417,"title":"Pazo da Pastora","type":37,"layer":"lugares","phone":null,"web":null,"subcategoria":"Edificio histórico","idpoi":8490,"mp3_uri":null,"lang":"es-ES","lat":42.2205364372103}},{"geometry":{"coordinates":[-8.70032814254929,42.2155363924702],"type":"Point"},"type":"Feature","properties":{"address":"Raposeira","image_uri":"http://www.turismodevigo.org/sites/turismodevigo/files/lug112.jpg","postcode":"36214","description":"Se trata de una propiedad privada no visitable. Se magnífica construcción en granito de dos plantas y con forma de U.","lon":-8.70032814254929,"title":"Pazo da Raposeira","type":37,"layer":"lugares","phone":null,"web":null,"subcategoria":"Edificio histórico","idpoi":8491,"mp3_uri":null,"lang":"es-ES","lat":42.2155363924702}},{"geometry":{"coordinates":[-8.72769319007678,42.213311575337],"type":"Point"},"type":"Feature","properties":{"address":"Parque de Castrelos","image_uri":"http://www.turismodevigo.org/sites/turismodevigo/files/lug113.jpg","postcode":"36213","description":"Fue declarado monumento histórico artístico desde 1955. En la actualidad es sede del Museo Municipal Quiñones de León en el que destaca la presencia de colecciones de Arqueología y de Pintura.","lon":-8.72769319007678,"title":"Pazo de Castrelos","type":37,"layer":"lugares","phone":"986295075","web":null,"subcategoria":"Edificio histórico","idpoi":8492,"mp3_uri":null,"lang":"es-ES","lat":42.213311575337}},{"geometry":{"coordinates":[-8.69810573715797,42.2291469204331],"type":"Point"},"type":"Feature","properties":{"address":null,"image_uri":null,"postcode":"36205","description":"Se trata de una propiedad privada no visitable. El elemento más característico del pazo es el portalón.","lon":-8.69810573715797,"title":"Pazo de Ribeira","type":37,"layer":"lugares","phone":null,"web":null,"subcategoria":"Edificio histórico","idpoi":8493,"mp3_uri":null,"lang":"es-ES","lat":42.2291469204331}},{"geometry":{"coordinates":[-8.71912602387196,42.2357032808222],"type":"Point"},"type":"Feature","properties":{"address":"Urzaiz, 11-23","image_uri":"http://www.turismodevigo.org/sites/turismodevigo/files/lug103.jpg","postcode":"36201","description":"Grupo de siete casas promovidas por Benito Sanjurjo Ramírez de Arellano entre los años 1903-1912 y proyectadas por Michel Pacewicz y Jenaro de la Fuente Domínguez.","lon":-8.71912602387196,"title":"Grupo de Casas de Benito Sanjurjo","type":37,"layer":"lugares","phone":null,"web":null,"subcategoria":"Arquitectura civil","idpoi":8483,"mp3_uri":null,"lang":"es-ES","lat":42.2357032808222}},{"geometry":{"coordinates":[-8.72799196493196,42.2374477173206],"type":"Point"},"type":"Feature","properties":{"address":"Praza da Constitución","image_uri":"http://www.turismodevigo.org/sites/turismodevigo/files/lug132.jpg","postcode":"36202","description":"Declarados monumento histórico-artísticos el 8 de febrero de 1946. Su disposición recuerda las típicas calles santiaguesas. En su entorno destacan las edificaciones de corte marinero, casas pequeñas y pequeñas tabernas.","lon":-8.72799196493196,"title":"Soportais do Berbés","type":37,"layer":"lugares","phone":null,"web":null,"subcategoria":"Arquitectura civil","idpoi":8508,"mp3_uri":null,"lang":"es-ES","lat":42.2374477173206}},{"geometry":{"coordinates":[-8.70686499209293,42.1921825359277],"type":"Point"},"type":"Feature","properties":{"address":"A Igrexa, s/n","image_uri":"http://www.turismodevigo.org/sites/turismodevigo/files/lug147.jpg","postcode":"36312","description":"La cruz es lisa y tiene a Cristo crucificado, con tres clavos, piernas flexionadas y la cabeza inclinada hacia el lado derecho. En el reverso aparece la Piedad. Se conservan además dos cruces lisas en la entrada del atrio sobre el muro.","lon":-8.70686499209293,"title":"Cruceiro do adro da Igrexa de Beade","type":37,"layer":"lugares","phone":null,"web":null,"subcategoria":"Arquitectura religiosa","idpoi":8522,"mp3_uri":null,"lang":"es-ES","lat":42.1921825359277}},{"geometry":{"coordinates":[-8.68691324300314,42.2038285339502],"type":"Point"},"type":"Feature","properties":{"address":"A Igrexa, s/n","image_uri":"http://www.turismodevigo.org/sites/turismodevigo/files/lug148.jpg","postcode":"36313","description":"En el anverso tiene a Cristo crucificado con tres clavos y atado, con una calavera y dos tibias cruzadas a sus pies. En el reverso tiene a la Piedad con gran volumen de ropajes y un cristo.","lon":-8.68691324300314,"title":"Cruceiro do adro da igrexa de Bembrive","type":37,"layer":"lugares","phone":null,"web":null,"subcategoria":"Arquitectura religiosa","idpoi":8523,"mp3_uri":null,"lang":"es-ES","lat":42.2038285339502}},{"geometry":{"coordinates":[-8.69693779009189,42.2267001927865],"type":"Point"},"type":"Feature","properties":{"address":"Igrexa de Sta. Cristina de Lavadores","image_uri":"http://www.turismodevigo.org/sites/turismodevigo/files/lug150.jpg","postcode":"36214","description":"Del crucero original sólo se conserva la cruz en la que se representa a Cristo crucificado con tres clavos, en posición rígida y los brazos paralelos.","lon":-8.69693779009189,"title":"Cruceiro da Igrexa de Sta Cristina de Lavadores","type":37,"layer":"lugares","phone":null,"web":null,"subcategoria":"Arquitectura religiosa","idpoi":8524,"mp3_uri":null,"lang":"es-ES","lat":42.2267001927865}},{"geometry":{"coordinates":[-8.72258298315118,42.2390503843608],"type":"Point"},"type":"Feature","properties":{"address":"Plaza de Compostela, 6, 7, 9","image_uri":"http://www.turismodevigo.org/sites/turismodevigo/files/lug151.jpg","postcode":"36201","description":"Destaca la falta de elementos decorativos y las formas redondeadas nos hablan de un estilo racionalista. Como material constructivo se utilizó granito blanco de grano fino, extraído de la sierra de Castrelos, y pulido en la superficie.","lon":-8.72258298315118,"title":"Vivendas para a Compañía Carbonera","type":37,"layer":"lugares","phone":null,"web":null,"subcategoria":"Arquitectura civil","idpoi":8525,"mp3_uri":null,"lang":"es-ES","lat":42.2390503843608}},{"geometry":{"coordinates":[-8.7213517269346,42.2087102951328],"type":"Point"},"type":"Feature","properties":{"address":"A Costa, s/n","image_uri":"http://www.turismodevigo.org/sites/turismodevigo/files/lug152.jpg","postcode":"36213","description":"Tiene representados los elementos de la pasión y la inscripción ilegible dentro de una cartela.","lon":-8.7213517269346,"title":"Cruz da Costa","type":37,"layer":"lugares","phone":null,"web":null,"subcategoria":"Arquitectura religiosa","idpoi":8526,"mp3_uri":null,"lang":"es-ES","lat":42.2087102951328}},{"geometry":{"coordinates":[-8.71149356638286,42.2174646237223],"type":"Point"},"type":"Feature","properties":{"address":"Laxe, s/n","image_uri":"http://www.turismodevigo.org/sites/turismodevigo/files/lug153.jpg","postcode":"36214","description":"Se muestra a Cristo crucificado, y en el reverso está la Piedad con una Virgen orando, ambas muy logradas y de ropajes amplios.","lon":-8.71149356638286,"title":"Cruceiro do adro da Igrexa de San Pedro de Sárdoma","type":37,"layer":"lugares","phone":null,"web":null,"subcategoria":"Arquitectura religiosa","idpoi":8527,"mp3_uri":null,"lang":"es-ES","lat":42.2174646237223}},{"geometry":{"coordinates":[-8.7144378659146,42.2170268153568],"type":"Point"},"type":"Feature","properties":{"address":"Laxe, s/n","image_uri":"http://www.turismodevigo.org/sites/turismodevigo/files/lug154.jpg","postcode":"36214","description":"En él aparece representada la crucifixión y la Piedad.","lon":-8.7144378659146,"title":"Cruceiro de Laxe","type":37,"layer":"lugares","phone":null,"web":null,"subcategoria":"Arquitectura religiosa","idpoi":8528,"mp3_uri":null,"lang":"es-ES","lat":42.2170268153568}},{"geometry":{"coordinates":[-8.72522161249598,42.2102396641093],"type":"Point"},"type":"Feature","properties":{"address":"A Costa, s/n","image_uri":"http://www.turismodevigo.org/sites/turismodevigo/files/lug155.jpg","postcode":"36213","description":"La cruz es lisa, y en el anverso tiene a Cristo crucificado con tres clavos y piernas flexionadas. En el reverso está representada la Piedad, que sostiene a Cristo con una mano sobre la cintura.","lon":-8.72522161249598,"title":"Cruceiro do barrio da Costa","type":37,"layer":"lugares","phone":null,"web":null,"subcategoria":"Arquitectura religiosa","idpoi":8529,"mp3_uri":null,"lang":"es-ES","lat":42.2102396641093}},{"geometry":{"coordinates":[-8.77395438965384,42.1925236358592],"type":"Point"},"type":"Feature","properties":{"address":"Tarrío, s/n","image_uri":"http://www.turismodevigo.org/sites/turismodevigo/files/lug156.jpg","postcode":"36391","description":"Se representa la crucifixión y en el reverso la Piedad con un querubín debajo.","lon":-8.77395438965384,"title":"Cruceiro de Tarrío","type":37,"layer":"lugares","phone":null,"web":null,"subcategoria":"Arquitectura religiosa","idpoi":8530,"mp3_uri":null,"lang":"es-ES","lat":42.1925236358592}},{"geometry":{"coordinates":[-8.80143805678495,42.1826712522109],"type":"Point"},"type":"Feature","properties":{"address":"A Igrexa, s/n","image_uri":"http://www.turismodevigo.org/sites/turismodevigo/files/lug157.jpg","postcode":"36390","description":"En la cruz tiene representados símbolos de la Pasión, como el martillo y la escalera.","lon":-8.80143805678495,"title":"Cruceiro do adro da Igrexa de Oia","type":37,"layer":"lugares","phone":null,"web":null,"subcategoria":"Arquitectura religiosa","idpoi":8531,"mp3_uri":null,"lang":"es-ES","lat":42.1826712522109}},{"geometry":{"coordinates":[-8.76712900575638,42.1824445991478],"type":"Point"},"type":"Feature","properties":{"address":"Fragoselo, s/n","image_uri":"http://www.turismodevigo.org/sites/turismodevigo/files/lug158.jpg","postcode":"36391","description":"Cuenta la tradición que la ubicación de la cruz viene dada porque allí murió una \"pescantina\" que venía de Camos y que por eso se colocó allí la cruz.","lon":-8.76712900575638,"title":"Cruz de Freixal","type":37,"layer":"lugares","phone":null,"web":null,"subcategoria":"Arquitectura religiosa","idpoi":8532,"mp3_uri":null,"lang":"es-ES","lat":42.1824445991478}},{"geometry":{"coordinates":[-8.68847191522071,42.1547396137659],"type":"Point"},"type":"Feature","properties":{"address":"Zamáns, s/n","image_uri":"http://www.turismodevigo.org/sites/turismodevigo/files/lug146.jpg","postcode":"36310","description":"Se representa la Crucifixión con un Cristo inexpresivo y rígido. En el reverso aparece representada la Piedad con un pequeño Cristo entre las rodillas.","lon":-8.68847191522071,"title":"Cruceiro de Zamáns","type":37,"layer":"lugares","phone":null,"web":null,"subcategoria":"Arquitectura religiosa","idpoi":8521,"mp3_uri":null,"lang":"es-ES","lat":42.1547396137659}},{"geometry":{"coordinates":[-8.75293904091316,42.2130995587747],"type":"Point"},"type":"Feature","properties":{"address":"Cemiterio de Bouzas","image_uri":"http://www.turismodevigo.org/sites/turismodevigo/files/lug145.jpg","postcode":"36213","description":"La cruz es lisa y de sección cuadrangular. En el anverso tiene a Cristo crucificado con tres clavos. En el reverso tiene a la Piedad con una Virgen con las manos unidas y un Cristo de pequeñas dimensiones.","lon":-8.75293904091316,"title":"Cruceiro do cemiterio de Bouzas","type":37,"layer":"lugares","phone":null,"web":null,"subcategoria":"Arquitectura religiosa","idpoi":8520,"mp3_uri":null,"lang":"es-ES","lat":42.2130995587747}},{"geometry":{"coordinates":[-8.66895100150479,42.2410681328254],"type":"Point"},"type":"Feature","properties":{"address":"Candeán de Arriba, s/n","image_uri":"http://www.turismodevigo.org/sites/turismodevigo/files/lug134.jpg","postcode":"36217","description":"Es una de las cruces que formaban parte del Vía Crucis.","lon":-8.66895100150479,"title":"Cruz de O Calvario de Candeán","type":37,"layer":"lugares","phone":null,"web":null,"subcategoria":"Arquitectura religiosa","idpoi":8509,"mp3_uri":null,"lang":"es-ES","lat":42.2410681328254}},{"geometry":{"coordinates":[-8.71520034117704,42.1923785641791],"type":"Point"},"type":"Feature","properties":{"address":"Babío, s/n","image_uri":null,"postcode":"36312","description":"Se trata de un crucero atípico y que se parece más bien a una de las cruces que forman el \"Vía Crucis\"","lon":-8.71520034117704,"title":"Cruz do lugar de Babío","type":37,"layer":"lugares","phone":null,"web":null,"subcategoria":"Arquitectura religiosa","idpoi":8510,"mp3_uri":null,"lang":"es-ES","lat":42.1923785641791}},{"geometry":{"coordinates":[-8.76403120158451,42.1802268935702],"type":"Point"},"type":"Feature","properties":{"address":"Fragoselo, s/n","image_uri":"http://www.turismodevigo.org/sites/turismodevigo/files/lug136.jpg","postcode":"36391","description":"Representa a Cristo crucificado, sujeto con tres clavos y las piernas flexionadas. Conserva restos de pintura azul en la cruz y parte del cuerpo.","lon":-8.76403120158451,"title":"Cruceiro do lugar de Cruceiro de Fragoselo","type":37,"layer":"lugares","phone":null,"web":null,"subcategoria":"Arquitectura religiosa","idpoi":8511,"mp3_uri":null,"lang":"es-ES","lat":42.1802268935702}},{"geometry":{"coordinates":[-8.65538439794432,42.2220607493835],"type":"Point"},"type":"Feature","properties":{"address":"O Calvario, s/n","image_uri":"http://www.turismodevigo.org/sites/turismodevigo/files/lug137.jpg","postcode":"36218","description":"Formaba parte del Vía Crucis, siendo posiblemente el punto final del mismo.Hoy en día aún se celebra la procesión de Viernes Santo hasta este lugar intentando conservar una tradición antigua.","lon":-8.65538439794432,"title":"Cruz do Calvario de Cabral","type":37,"layer":"lugares","phone":null,"web":null,"subcategoria":"Arquitectura religiosa","idpoi":8512,"mp3_uri":null,"lang":"es-ES","lat":42.2220607493835}},{"geometry":{"coordinates":[-8.76812829873881,42.1872747927348],"type":"Point"},"type":"Feature","properties":{"address":"A Luz, s/n","image_uri":"http://www.turismodevigo.org/sites/turismodevigo/files/lug138.jpg","postcode":"36391","description":"Dice la tradición que los entierros paraban delante de ella y se rezaba allí.","lon":-8.76812829873881,"title":"Cruz de Bouzós","type":37,"layer":"lugares","phone":null,"web":null,"subcategoria":"Arquitectura religiosa","idpoi":8513,"mp3_uri":null,"lang":"es-ES","lat":42.1872747927348}},{"geometry":{"coordinates":[-8.72833108580292,42.2377493254884],"type":"Point"},"type":"Feature","properties":{"address":"Vigo","image_uri":"http://www.turismodevigo.org/sites/turismodevigo/files/lug139.jpg","postcode":"36202","description":"Conjunto urbano no declarado como conjunto histórico, pero que funciona como tal.","lon":-8.72833108580292,"title":"Conjuntos Parciales del barrio viejo de Vigo","type":37,"layer":"lugares","phone":null,"web":null,"subcategoria":"Arquitectura civil","idpoi":8514,"mp3_uri":null,"lang":"es-ES","lat":42.2377493254884}},{"geometry":{"coordinates":[-8.68646769896455,42.2574265504594],"type":"Point"},"type":"Feature","properties":{"address":"A Igrexa, s/n","image_uri":"http://www.turismodevigo.org/sites/turismodevigo/files/lug140.jpg","postcode":"36216","description":"Formó parte del Vía Crucis procesional alrededor de la iglesia.","lon":-8.68646769896455,"title":"Cruz do Adro da Igrexa de San Salvador de Teis","type":37,"layer":"lugares","phone":null,"web":null,"subcategoria":"Arquitectura religiosa","idpoi":8515,"mp3_uri":null,"lang":"es-ES","lat":42.2574265504594}},{"geometry":{"coordinates":[-8.75002217444147,42.2243016251919],"type":"Point"},"type":"Feature","properties":{"address":"Cruceiro de Bouzas, s/n","image_uri":"http://www.turismodevigo.org/sites/turismodevigo/files/lug141.jpg","postcode":"36208","description":"En el anverso se nos presenta la crucifixión con un Cristo con tres clavos. En el reverso se observa la coronación de la Virgen por dos ángeles y una Virgen encima de la luna y la serpiente.","lon":-8.75002217444147,"title":"Cruceiro vello","type":37,"layer":"lugares","phone":null,"web":null,"subcategoria":"Arquitectura religiosa","idpoi":8516,"mp3_uri":null,"lang":"es-ES","lat":42.2243016251919}},{"geometry":{"coordinates":[-8.73744216564666,42.1994404900707],"type":"Point"},"type":"Feature","properties":{"address":"Pereiró, s/n","image_uri":"http://www.turismodevigo.org/sites/turismodevigo/files/lug142.jpg","postcode":"36213","description":"Destacar que en frente del crucero hay un \"Pousadoiro\" de ataúdes que data de 1953.","lon":-8.73744216564666,"title":"Cruceiro do interior do cemiterio de Matamá","type":37,"layer":"lugares","phone":null,"web":null,"subcategoria":"Arquitectura religiosa","idpoi":8517,"mp3_uri":null,"lang":"es-ES","lat":42.1994404900707}},{"geometry":{"coordinates":[-8.6651816684592,42.2420044363674],"type":"Point"},"type":"Feature","properties":{"address":"Cemiterio de Candeán","image_uri":"http://www.turismodevigo.org/sites/turismodevigo/files/lug143.jpg","postcode":"36217","description":"La cruz tiene nudos imitando la madera y es de sección circular. Tiene como única representación a Cristo crucificado con tres clavos y la cabeza ladeada.","lon":-8.6651816684592,"title":"Cruceiro do cemiterio de Candeán","type":37,"layer":"lugares","phone":null,"web":null,"subcategoria":"Arquitectura religiosa","idpoi":8518,"mp3_uri":null,"lang":"es-ES","lat":42.2420044363674}},{"geometry":{"coordinates":[-8.65725609794702,42.2234922906772],"type":"Point"},"type":"Feature","properties":{"address":"A Igrexa, s/n","image_uri":"http://www.turismodevigo.org/sites/turismodevigo/files/lug144.jpg","postcode":"36218","description":"Se representa a un Cristo crucificado con tres clavos y la cabeza inclinada, las piernas flexionadas y los brazos oblicuos, dando la sensación de que ya estaba muerto en la cruz. Un ángel aparece suspendido en el aire.","lon":-8.65725609794702,"title":"Cruceiro do cemiterio de Santa Mariña de Cabral","type":37,"layer":"lugares","phone":null,"web":null,"subcategoria":"Arquitectura religiosa","idpoi":8519,"mp3_uri":null,"lang":"es-ES","lat":42.2234922906772}},{"geometry":{"coordinates":[-8.72119494846791,42.2397073539127],"type":"Point"},"type":"Feature","properties":{"address":"Plaza de Compostela, 20","image_uri":"http://www.turismodevigo.org/sites/turismodevigo/files/lug069.jpg","postcode":"36201","description":"El edificio fue diseñado en 1906, por Pacewicz. Constituye una de las obras del arquitecto con más influencias parisinas.","lon":-8.72119494846791,"title":"Casa Sanjurjo","type":37,"layer":"lugares","phone":null,"web":null,"subcategoria":"Arquitectura civil","idpoi":8450,"mp3_uri":null,"lang":"es-ES","lat":42.2397073539127}},{"geometry":{"coordinates":[-8.72091718757219,42.2399851210574],"type":"Point"},"type":"Feature","properties":{"address":"Concepción Arenal, 1","image_uri":"http://www.turismodevigo.org/sites/turismodevigo/files/lug068.jpg","postcode":"36201","description":"El edificio fue diseñado en 1898 por Michel Pacewicz. Se trata de una casa de planta baja y dos pisos con tres áticos piramidales, y con óculos para la ventilación del bajocubierta.","lon":-8.72091718757219,"title":"Casa Salvador Aranda Graña","type":37,"layer":"lugares","phone":null,"web":null,"subcategoria":"Arquitectura civil","idpoi":8449,"mp3_uri":null,"lang":"es-ES","lat":42.2399851210574}},{"geometry":{"coordinates":[-8.72091718621402,42.2397073547876],"type":"Point"},"type":"Feature","properties":{"address":"Plaza de Compostela, 19","image_uri":"http://www.turismodevigo.org/sites/turismodevigo/files/lug067.jpg","postcode":"36201","description":"El edificio fue diseñado en 1907 por Michel Pacewicz y Jenaro de la Fuente Domínguez. Su arquitectura es ecléctica hecha debido a las aportaciones de los arquitectos más famosos de la época.","lon":-8.72091718621402,"title":"Casa Rosendo Silva","type":37,"layer":"lugares","phone":null,"web":null,"subcategoria":"Arquitectura civil","idpoi":8448,"mp3_uri":null,"lang":"es-ES","lat":42.2397073547876}},{"geometry":{"coordinates":[-8.72702794684211,42.2380407379783],"type":"Point"},"type":"Feature","properties":{"address":"Elduayen, 4","image_uri":"http://www.turismodevigo.org/sites/turismodevigo/files/lug066.jpg","postcode":"36202","description":"El edificio fue diseñado en 1892 por Jenaro de la Fuente Domínguez. Fue edificada por el constructor Antonio González Romero.","lon":-8.72702794684211,"title":"Casa Ramón Arbones","type":37,"layer":"lugares","phone":null,"web":null,"subcategoria":"Arquitectura civil","idpoi":8447,"mp3_uri":null,"lang":"es-ES","lat":42.2380407379783}},{"geometry":{"coordinates":[-8.71851551251621,42.2354383026287],"type":"Point"},"type":"Feature","properties":{"address":"Urzaiz, 17","image_uri":"http://www.turismodevigo.org/sites/turismodevigo/files/lug070.jpg","postcode":"36201","description":"El edificio fue diseñado en 1921 por el arquitecto Manuel Gómez Román. Destacan su buhardilla muy ornamentada, con dinteles en arco de medio punto y adornada con volutas.","lon":-8.71851551251621,"title":"Casa Vicente Coma","type":37,"layer":"lugares","phone":null,"web":null,"subcategoria":"Arquitectura civil","idpoi":8451,"mp3_uri":null,"lang":"es-ES","lat":42.2354383026287}},{"geometry":{"coordinates":[-8.71869545469442,42.2371216818802],"type":"Point"},"type":"Feature","properties":{"address":"García Barbón, nº 15, 17, 19","image_uri":"http://www.turismodevigo.org/sites/turismodevigo/files/lug071.jpg","postcode":"36201","description":"Edificio de estilo ecléctico de corte francés y base neobarroca de fuerte simetría.","lon":-8.71869545469442,"title":"Casas de Oya","type":37,"layer":"lugares","phone":null,"web":null,"subcategoria":"Arquitectura civil","idpoi":8452,"mp3_uri":null,"lang":"es-ES","lat":42.2371216818802}},{"geometry":{"coordinates":[-8.72008388044108,42.2363741625086],"type":"Point"},"type":"Feature","properties":{"address":"Colón, 29-31","image_uri":"http://www.turismodevigo.org/sites/turismodevigo/files/lug072.jpg","postcode":"36201","description":"El edificio fue diseñado en 1908 por Jenaro de la Fuente Domínguez. El que lleva el número 29 fue modificado por José Franco Montes en 1917, que le añadió dos buhardillas laterales. Ambos edificios fueron concebidos bajo planteamientos eclécticos.","lon":-8.72008388044108,"title":"Casas para Álvaro López Mora","type":37,"layer":"lugares","phone":null,"web":null,"subcategoria":"Arquitectura civil","idpoi":8453,"mp3_uri":null,"lang":"es-ES","lat":42.2363741625086}},{"geometry":{"coordinates":[-8.72175047297855,42.2397073519461],"type":"Point"},"type":"Feature","properties":{"address":"Plaza de Compostela, 24","image_uri":"http://www.turismodevigo.org/sites/turismodevigo/files/lug073.jpg","postcode":"36201","description":"El edificio fue diseñado en 1910 por José Franco Montes. Es el máximo representante de las influencias de la arquitectura \"sezessionista vienesa\" en el modernismo vigués.","lon":-8.72175047297855,"title":"Casas para Joaquín Pérez Boullosa","type":37,"layer":"lugares","phone":null,"web":null,"subcategoria":"Arquitectura civil","idpoi":8454,"mp3_uri":null,"lang":"es-ES","lat":42.2397073519461}},{"geometry":{"coordinates":[-8.72674951134173,42.2369292300832],"type":"Point"},"type":"Feature","properties":{"address":"Parque de O Castro","image_uri":"http://www.turismodevigo.org/sites/turismodevigo/files/lug074.jpg","postcode":"36202","description":"De O Castelo de San Sebastián solamente quedan los muros del lado norte, con dos garitas porque un baluarte y dos medios baluartes que se conservaban fueron derribados para construir sobre ellos el palacio Consistorial.","lon":-8.72674951134173,"title":"Castelo de San Sebastián","type":37,"layer":"lugares","phone":null,"web":null,"subcategoria":"Construcción histórica","idpoi":8455,"mp3_uri":null,"lang":"es-ES","lat":42.2369292300832}},{"geometry":{"coordinates":[-8.72616134062013,42.2325876576669],"type":"Point"},"type":"Feature","properties":{"address":"Parque de O Castro","image_uri":"http://www.turismodevigo.org/sites/turismodevigo/files/lug075.jpg","postcode":"36203","description":"Fue construido en el s. XVII, al mismo tiempo que las murallas de la ciudad y el castillo de San Sebastián, por los ingenieros militares, Juan Villarroel y Prado y los hermanos Carlos y Fernando de Grunemberg.","lon":-8.72616134062013,"title":"Castelo do Castro","type":37,"layer":"lugares","phone":null,"web":null,"subcategoria":"Construcción histórica","idpoi":8456,"mp3_uri":null,"lang":"es-ES","lat":42.2325876576669}},{"geometry":{"coordinates":[-8.72627985016231,42.2319488180429],"type":"Point"},"type":"Feature","properties":{"address":"Monte O Castro","image_uri":"http://www.turismodevigo.org/sites/turismodevigo/files/lug076.jpg","postcode":"36202","description":"En 1926, y de manera fortuita, se produjeron los primeros hallazgos en la zona de restos de un poblado castreño. Posteriormente se pusieron al descubierto un total de 45 construcciones pertenecientes al período que va desde el s. II- I a. d. C.","lon":-8.72627985016231,"title":"Castro y Fortaleza","type":37,"layer":"lugares","phone":null,"web":null,"subcategoria":"Construcción histórica","idpoi":8457,"mp3_uri":null,"lang":"es-ES","lat":42.2319488180429}},{"geometry":{"coordinates":[-8.72139456925014,42.2391407513262],"type":"Point"},"type":"Feature","properties":{"address":"Plaza de Compostela, 13, 14","image_uri":"http://www.turismodevigo.org/sites/turismodevigo/files/lug065.jpg","postcode":"36201","description":"El edificio fue diseñado por Jenaro de la Fuente Domínguez y construido en dos fases: la primera en 1892 y la segunda en 1900, pero constituye un conjunto. Es un edificio ecléctico y muy ornamentado.","lon":-8.72139456925014,"title":"Casa Prudencio Nandín","type":37,"layer":"lugares","phone":null,"web":null,"subcategoria":"Arquitectura civil","idpoi":8446,"mp3_uri":null,"lang":"es-ES","lat":42.2391407513262}},{"geometry":{"coordinates":[-8.7262169428509,42.2385812930542],"type":"Point"},"type":"Feature","properties":{"address":"Plaza de la Constitución, 8","image_uri":"http://www.turismodevigo.org/sites/turismodevigo/files/lug064.jpg","postcode":"36202","description":"Edificio del siglo XVIII, perteneciente a la Casa Pereira. Como ornamento tiene tres escudos de la familia.","lon":-8.7262169428509,"title":"Casa Pereira Castro","type":37,"layer":"lugares","phone":null,"web":null,"subcategoria":"Arquitectura civil","idpoi":8445,"mp3_uri":null,"lang":"es-ES","lat":42.2385812930542}},{"geometry":{"coordinates":[-8.71640863513712,42.2389215697612],"type":"Point"},"type":"Feature","properties":{"address":"Areal, 46, Esquina A Oporto 1","image_uri":"http://www.turismodevigo.org/sites/turismodevigo/files/lug054.jpg","postcode":"36201","description":"El edificio actual es el único que mantiene una alineación distinta de los demás inmuebles de esta calle, por cambios en el proyecto inicial de edificación de dicha calle.","lon":-8.71640863513712,"title":"El antiguo Rectorado de la Universidad de Vigo","type":37,"layer":"lugares","phone":null,"web":null,"subcategoria":"Arquitectura civil","idpoi":8435,"mp3_uri":null,"lang":"es-ES","lat":42.2389215697612}},{"geometry":{"coordinates":[-8.72154031049172,42.2404836253924],"type":"Point"},"type":"Feature","properties":{"address":"Avda. Montero Ríos, 30 y 32","image_uri":"http://www.turismodevigo.org/sites/turismodevigo/files/lug055.jpg","postcode":"36201","description":"El edificio fue diseñado en 1908 por Jenaro de la Fuente Domínguez. Es un edificio ecléctico con cuatro plantas y desván también simétrico y un ancho cuerpo central, algo saliente, con cuatro vanos enmarcados en almohadillados.","lon":-8.72154031049172,"title":"Casa González Salgado","type":37,"layer":"lugares","phone":null,"web":null,"subcategoria":"Arquitectura civil","idpoi":8436,"mp3_uri":null,"lang":"es-ES","lat":42.2404836253924}},{"geometry":{"coordinates":[-8.7241348760891,42.2402661735249],"type":"Point"},"type":"Feature","properties":{"address":"Avda. Montero Ríos, 2","image_uri":"http://www.turismodevigo.org/sites/turismodevigo/files/lug056.jpg","postcode":"36202","description":"El edificio fue diseñado por José Franco Montes en 1920. Se trata de un edificio de bajo y tres plantas, como la mayoría de las edificaciones del Ensanche Olloqui. Fue construido por el contratista Antonio González Romero.","lon":-8.7241348760891,"title":"Casa Hermanos Suárez","type":37,"layer":"lugares","phone":null,"web":null,"subcategoria":"Arquitectura civil","idpoi":8437,"mp3_uri":null,"lang":"es-ES","lat":42.2402661735249}},{"geometry":{"coordinates":[-8.7261730655921,42.2380727872859],"type":"Point"},"type":"Feature","properties":{"address":"Porta do Sol","image_uri":"http://www.turismodevigo.org/sites/turismodevigo/files/lug057.jpg","postcode":"36202","description":"El edificio fue diseñado en 1893 por Jenaro de la Fuente Domínguez. Tiene tres fachadas y cinco plantas. La fachada principal, que da a la \"Porta do Sol\", destaca por tener el eje de simetría centralizado.","lon":-8.7261730655921,"title":"Casa Ledo","type":37,"layer":"lugares","phone":null,"web":null,"subcategoria":"Arquitectura civil","idpoi":8438,"mp3_uri":null,"lang":"es-ES","lat":42.2380727872859}},{"geometry":{"coordinates":[-8.71589624169174,42.2346986836673],"type":"Point"},"type":"Feature","properties":{"address":"Lepanto, 5","image_uri":"http://www.turismodevigo.org/sites/turismodevigo/files/lug058.jpg","postcode":"36201","description":"El edificio fue diseñado en 1921 por Manuel Gómez Román, para vivienda de Manuel Millán. Lo más destacable son los capites ecléctico-clasicistas, que sirven de ejemplo para ver la primera etapa del eclecticismo en la ciudad viguesa.","lon":-8.71589624169174,"title":"Casa Manuel Millán","type":37,"layer":"lugares","phone":null,"web":null,"subcategoria":"Arquitectura civil","idpoi":8439,"mp3_uri":null,"lang":"es-ES","lat":42.2346986836673}},{"geometry":{"coordinates":[-8.72175046051426,42.2374852221841],"type":"Point"},"type":"Feature","properties":{"address":"Velázquez Moreno, 15-17","image_uri":"http://www.turismodevigo.org/sites/turismodevigo/files/lug059.jpg","postcode":"36202","description":"El edificio fue diseñado en 1882 por Domingo Rodríguez Sesmero para Marcelino Barreras. Es un edificio simétrico con un chaflán en el que destacan las galerías de fundición que sirven de amplios miradores.","lon":-8.72175046051426,"title":"Casa Marcelino Barreras","type":37,"layer":"lugares","phone":null,"web":null,"subcategoria":"Arquitectura civil","idpoi":8440,"mp3_uri":null,"lang":"es-ES","lat":42.2374852221841}},{"geometry":{"coordinates":[-8.7196061421324,42.2373669768909],"type":"Point"},"type":"Feature","properties":{"address":"García Barbón, nº 4","image_uri":"http://www.turismodevigo.org/sites/turismodevigo/files/lug060.jpg","postcode":"36201","description":"El edificio fue diseñado en dos etapas. En 1875, Alejandro Rodríguez Sesmero, firmó una planta baja y dos pisos; y en 1908 Jenaro de la Fuente Domínguez firmó la adición al tercer piso, tras la compra del edificio por Manuel Rodríguez Rodríguez.","lon":-8.7196061421324,"title":"Casa Odriozola","type":37,"layer":"lugares","phone":null,"web":null,"subcategoria":"Arquitectura civil","idpoi":8441,"mp3_uri":null,"lang":"es-ES","lat":42.2373669768909}},{"geometry":{"coordinates":[-8.72202822271768,42.2374852219878],"type":"Point"},"type":"Feature","properties":{"address":"Policarpo Sanz, 24","image_uri":"http://www.turismodevigo.org/sites/turismodevigo/files/lug061.jpg","postcode":"36202","description":"Realizado en granito de cantería, es un edificio de estilo ecléctico. Tiene una planta baja y tres pisos, y no presenta ninguna alteración en relación con el proyecto inicial.","lon":-8.72202822271768,"title":"Casa para Manuel Bárcena Franco","type":37,"layer":"lugares","phone":null,"web":null,"subcategoria":"Arquitectura civil","idpoi":8442,"mp3_uri":null,"lang":"es-ES","lat":42.2374852219878}},{"geometry":{"coordinates":[-8.72313865500889,42.2390170221635],"type":"Point"},"type":"Feature","properties":{"address":"Plaza de Compostela, 4, 5","image_uri":"http://www.turismodevigo.org/sites/turismodevigo/files/lug062.jpg","postcode":"36201","description":"El edificio fue diseñado por Jenaro de la Fuente Álvarez en 1940. El proyecto es marcadamente racionalista con formas redondeadas y sin ornamentación.","lon":-8.72313865500889,"title":"Casa para María Iglesias Curty","type":37,"layer":"lugares","phone":null,"web":null,"subcategoria":"Arquitectura civil","idpoi":8443,"mp3_uri":null,"lang":"es-ES","lat":42.2390170221635}},{"geometry":{"coordinates":[-8.72526941810899,42.2390421169541],"type":"Point"},"type":"Feature","properties":{"address":"Joaquín Yánez, 12","image_uri":"http://www.turismodevigo.org/sites/turismodevigo/files/lug063.jpg","postcode":"36202","description":"El edificio fue diseñado en 1889 por Jenaro de la Fuente Domínguez. Hoy es la Biblioteca Central, pero anteriormente fue un edificio comercial y también albergó el casino vigués.","lon":-8.72526941810899,"title":"Casa Pedro Román","type":37,"layer":"lugares","phone":null,"web":null,"subcategoria":"Arquitectura civil","idpoi":8444,"mp3_uri":null,"lang":"es-ES","lat":42.2390421169541}},{"geometry":{"coordinates":[-8.72175045497292,42.2366519238619],"type":"Point"},"type":"Feature","properties":{"address":"Príncipe, 41","image_uri":"http://www.turismodevigo.org/sites/turismodevigo/files/lug053.jpg","postcode":"36202","description":"Edificio de estilo ecléctico con influencia francesa, remarcada por la presencia de la mansarda superior con una serie de guardillas decoradas con frontón curvo e volutas nos laterales.","lon":-8.72175045497292,"title":"Casa Estanislao Durán","type":37,"layer":"lugares","phone":null,"web":null,"subcategoria":"Arquitectura civil","idpoi":8434,"mp3_uri":null,"lang":"es-ES","lat":42.2366519238619}},{"geometry":{"coordinates":[-8.71786178591829,42.2372074680702],"type":"Point"},"type":"Feature","properties":{"address":"García Barbón, 29","image_uri":"http://www.turismodevigo.org/sites/turismodevigo/files/lug102.jpg","postcode":"36201","description":"Este edificio fue construido para la venta de automóviles, pero su apariencia monumentalista es propia de cualquier edificación institucional de la época.","lon":-8.71786178591829,"title":"Garaxe Americano","type":37,"layer":"lugares","phone":null,"web":null,"subcategoria":"Arquitectura civil","idpoi":8482,"mp3_uri":null,"lang":"es-ES","lat":42.2372074680702}},{"geometry":{"coordinates":[-8.75152901488072,42.2240613703943],"type":"Point"},"type":"Feature","properties":{"address":"Tomás Alonso, 224","image_uri":"http://www.turismodevigo.org/sites/turismodevigo/files/lug091.jpg","postcode":"36208","description":"El edificio fue diseñado en 1945 por el arquitecto Francisco Castro Represas. Destacan dos balconadas corridas con balaustrada y un balcón semicircular.","lon":-8.75152901488072,"title":"Edificio Miguel Seijo Serodio","type":37,"layer":"lugares","phone":null,"web":null,"subcategoria":"Arquitectura civil","idpoi":8472,"mp3_uri":null,"lang":"es-ES","lat":42.2240613703943}},{"geometry":{"coordinates":[-8.72295035617771,42.2374221295337],"type":"Point"},"type":"Feature","properties":{"address":"Policarpo Sanz, 22","image_uri":"http://www.turismodevigo.org/sites/turismodevigo/files/lug092.jpg","postcode":"36202","description":"El edificio fue diseñado en 1935 por el arquitecto Francisco Castro Represas.","lon":-8.72295035617771,"title":"Edificio Natalio Sanchón","type":37,"layer":"lugares","phone":null,"web":null,"subcategoria":"Arquitectura civil","idpoi":8473,"mp3_uri":null,"lang":"es-ES","lat":42.2374221295337}},{"geometry":{"coordinates":[-8.71760818145824,42.2347743346027],"type":"Point"},"type":"Feature","properties":{"address":"Urzaiz, 42","image_uri":"http://www.turismodevigo.org/sites/turismodevigo/files/lug093.jpg","postcode":"36203","description":"El edificio fue diseñado en 1905 por Pacewicz. Tiene una planta baja y tres altas.","lon":-8.71760818145824,"title":"Edificio Núñez Berdiales","type":37,"layer":"lugares","phone":null,"web":null,"subcategoria":"Arquitectura civil","idpoi":8474,"mp3_uri":null,"lang":"es-ES","lat":42.2347743346027}},{"geometry":{"coordinates":[-8.72205686545205,42.2378130984831],"type":"Point"},"type":"Feature","properties":{"address":"Policarpo Sanz, 21","image_uri":"http://www.turismodevigo.org/sites/turismodevigo/files/lug094.jpg","postcode":"36202","description":"El edificio fue diseñado en 1891 por Manuel Felipe Quintana. Destaca la simetría de sus fachadas unidas por un chaflán con galerías en las dos últimas plantas.","lon":-8.72205686545205,"title":"Edificio para Francisco Solleiro Negrete","type":37,"layer":"lugares","phone":null,"web":null,"subcategoria":"Arquitectura civil","idpoi":8475,"mp3_uri":null,"lang":"es-ES","lat":42.2378130984831}},{"geometry":{"coordinates":[-8.71591627783067,42.2341316325804],"type":"Point"},"type":"Feature","properties":{"address":"Cuba, 2, esquina a Urzaiz","image_uri":"http://www.turismodevigo.org/sites/turismodevigo/files/lug095.jpg","postcode":"36204","description":"El edificio fue diseñado en 1938 por el arquitecto Francisco Castro Represas. Las obras de cantería fueron hechas por el maestro cantero Ángel García Martínez utilizando el granito blanco de la sierra de Castrelos y un acabado final de pulido.","lon":-8.71591627783067,"title":"Edificio para Jesús Crespo Filgueira","type":37,"layer":"lugares","phone":null,"web":null,"subcategoria":"Arquitectura civil","idpoi":8476,"mp3_uri":null,"lang":"es-ES","lat":42.2341316325804}},{"geometry":{"coordinates":[-8.72500908910496,42.2376613704553],"type":"Point"},"type":"Feature","properties":{"address":"Porta do Sol, 6","image_uri":"http://www.turismodevigo.org/sites/turismodevigo/files/lug096.jpg","postcode":"36203","description":"El edificio tiene tres pisos de los cuales el último es abuhardillado. La planta baja, dedicada al comercio, tiene un carácter suntuoso y monumental con una excelente cantería en granito.","lon":-8.72500908910496,"title":"Edificio Simeón","type":37,"layer":"lugares","phone":null,"web":null,"subcategoria":"Arquitectura civil","idpoi":8477,"mp3_uri":null,"lang":"es-ES","lat":42.2376613704553}},{"geometry":{"coordinates":[-8.6809168804034,42.1701586658028],"type":"Point"},"type":"Feature","properties":{"address":"Campus Universitario de Vigo","image_uri":"http://www.turismodevigo.org/sites/turismodevigo/files/lug098.jpg","postcode":"36310","description":"Se trata de un edificio de vanguardia diseñado por Alfonso Penela Fernández.","lon":-8.6809168804034,"title":"Facultade de Ciencias Económicas do Campus de Vigo","type":37,"layer":"lugares","phone":null,"web":null,"subcategoria":"Arquitectura civil","idpoi":8478,"mp3_uri":null,"lang":"es-ES","lat":42.1701586658028}},{"geometry":{"coordinates":[-8.728694504176,42.2352630711676],"type":"Point"},"type":"Feature","properties":{"address":"Falperra","image_uri":"http://www.turismodevigo.org/sites/turismodevigo/files/lug099.jpg","postcode":"36202","description":"Se trata de una fuente moderna pero coronada de monumentalidad barroca.","lon":-8.728694504176,"title":"Fonte da Falperra","type":37,"layer":"lugares","phone":null,"web":null,"subcategoria":"Arquitectura popular","idpoi":8479,"mp3_uri":null,"lang":"es-ES","lat":42.2352630711676}},{"geometry":{"coordinates":[-8.72589530584672,42.2383505548749],"type":"Point"},"type":"Feature","properties":{"address":"Plaza de la Princesa","image_uri":"http://www.turismodevigo.org/sites/turismodevigo/files/lug100.jpg","postcode":"36202","description":"Se tiene constancia de su existencia desde el año 1889.","lon":-8.72589530584672,"title":"Fonte da Praza da Princesa","type":37,"layer":"lugares","phone":null,"web":null,"subcategoria":"Arquitectura popular","idpoi":8480,"mp3_uri":null,"lang":"es-ES","lat":42.2383505548749}},{"geometry":{"coordinates":[-8.72786122567813,42.2366519046258],"type":"Point"},"type":"Feature","properties":{"address":"Alfonso XII","image_uri":"http://www.turismodevigo.org/sites/turismodevigo/files/lug101.jpg","postcode":"36202","description":"Hay datos crónicas que ya hablan de su existencia en el año 1875 cuando el Faro de Vigo da la noticia de su construcción.","lon":-8.72786122567813,"title":"Fonte Paseo Alfonso XII","type":37,"layer":"lugares","phone":null,"web":null,"subcategoria":"Arquitectura popular","idpoi":8481,"mp3_uri":null,"lang":"es-ES","lat":42.2366519046258}},{"geometry":{"coordinates":[-8.72469973988995,42.2400527669455],"type":"Point"},"type":"Feature","properties":{"address":"Montero Ríos","image_uri":"http://www.turismodevigo.org/sites/turismodevigo/files/lug090.jpg","postcode":"36202","description":"El edificio se conserva igual que en el proyecto inicial y albergó el Hotel Universal, uno de los más conocidos de la ciudad, durante muchos años. Este hotel fue adquirido por la cadena AC, que llevó a cabo una remodelación interior.","lon":-8.72469973988995,"title":"Edificio do Hotel Universal","type":37,"layer":"lugares","phone":null,"web":"www.marriott.com/hotels/travel/VGOPA-AC-Hotel-Palacio-Universal","subcategoria":"Arquitectura civil","idpoi":8471,"mp3_uri":null,"lang":"es-ES","lat":42.2400527669455}},{"geometry":{"coordinates":[-8.72506201610924,42.2380727935561],"type":"Point"},"type":"Feature","properties":{"address":"Policarpo Sanz, 1","image_uri":"http://www.turismodevigo.org/sites/turismodevigo/files/lug089.jpg","postcode":"36203","description":"Es una de las obras más emblemáticas de Michel Pacewicz y del eclecticismo del siglo XIX en la ciudad. Es conocido popularmente como íhotel El Modernoí por haber albergado, durante mucho tiempo, una instalación hotelera.","lon":-8.72506201610924,"title":"Edificio do Hotel Moderno","type":37,"layer":"lugares","phone":null,"web":null,"subcategoria":"Arquitectura civil","idpoi":8470,"mp3_uri":null,"lang":"es-ES","lat":42.2380727935561}},{"geometry":{"coordinates":[-8.74572613144052,42.2170394737805],"type":"Point"},"type":"Feature","properties":{"address":"Porriño, 5","image_uri":"http://www.turismodevigo.org/sites/turismodevigo/files/lug077.jpg","postcode":"36209","description":"Fue construído en el año 1999 y es obra del arquitecto Alfonso Penela.","lon":-8.74572613144052,"title":"Centro de Saúde de Coia","type":37,"layer":"lugares","phone":null,"web":null,"subcategoria":"Arquitectura civil","idpoi":8458,"mp3_uri":null,"lang":"es-ES","lat":42.2170394737805}},{"geometry":{"coordinates":[-8.78421413685596,42.1919270150979],"type":"Point"},"type":"Feature","properties":{"address":"Gontade","image_uri":"http://www.turismodevigo.org/sites/turismodevigo/files/lug079.jpg","postcode":"36391","description":"Conjunto de 4 molinos, obra del siglo XVIII, perfectamente restaurados.","lon":-8.78421413685596,"title":"Conjunto de los Molinos de Gontade","type":37,"layer":"lugares","phone":null,"web":null,"subcategoria":"Arquitectura popular","idpoi":8460,"mp3_uri":null,"lang":"es-ES","lat":42.1919270150979}},{"geometry":{"coordinates":[-8.71681303844016,42.2345651035536],"type":"Point"},"type":"Feature","properties":{"address":"Gran Vía, 2, esquina a Urzaiz","image_uri":"http://www.turismodevigo.org/sites/turismodevigo/files/lug080.jpg","postcode":"36203","description":"Destaca la gran monumentalidad y verticalidad del edificio, conferida por los volúmenes dispuestos en peldaños y rematados por una escultura hecha por Jesús Picón, copia de la Victora de Samotracia.","lon":-8.71681303844016,"title":"Edificio Albo","type":37,"layer":"lugares","phone":null,"web":null,"subcategoria":"Arquitectura civil","idpoi":8461,"mp3_uri":null,"lang":"es-ES","lat":42.2345651035536}},{"geometry":{"coordinates":[-8.72334588807285,42.2384565533443],"type":"Point"},"type":"Feature","properties":{"address":"Reconquista, 9-11","image_uri":"http://www.turismodevigo.org/sites/turismodevigo/files/lug081.jpg","postcode":"36201","description":"El edificio fue diseñado en 1941 por Antonio Palacios Ramilo.","lon":-8.72334588807285,"title":"Edificio Banca Viñas-Aranda","type":37,"layer":"lugares","phone":null,"web":null,"subcategoria":"Arquitectura civil","idpoi":8462,"mp3_uri":null,"lang":"es-ES","lat":42.2384565533443}},{"geometry":{"coordinates":[-8.72286151079495,42.2377629855468],"type":"Point"},"type":"Feature","properties":{"address":"Policarpo Sanz, 15","image_uri":"http://www.turismodevigo.org/sites/turismodevigo/files/lug082.jpg","postcode":"36202","description":"El edificio fue diseñado en 1938 por el arquitecto Romualdo de Madariaga. Todo el edificio tiene amplios ventanales con arcos de medio punto y unos vanos enmarcados con saliente y decorados.","lon":-8.72286151079495,"title":"Edificio Banco de España","type":37,"layer":"lugares","phone":null,"web":null,"subcategoria":"Arquitectura civil","idpoi":8463,"mp3_uri":null,"lang":"es-ES","lat":42.2377629855468}},{"geometry":{"coordinates":[-8.71668639756985,42.2389215689955],"type":"Point"},"type":"Feature","properties":{"address":"Areal, 42 , esquina Oporto 2","image_uri":"http://www.turismodevigo.org/sites/turismodevigo/files/lug083.jpg","postcode":"36201","description":"Es una de las principales obras del autor en la ciudad que se conserva íntegra. Es de estilo ecléctico y está compuesta por una planta baja y tres pisos. La ornamentación es de un recargado barroquismo.","lon":-8.71668639756985,"title":"Edificio Bonín","type":37,"layer":"lugares","phone":null,"web":null,"subcategoria":"Arquitectura civil","idpoi":8464,"mp3_uri":null,"lang":"es-ES","lat":42.2389215689955}},{"geometry":{"coordinates":[-8.72087777735032,42.2376581380734],"type":"Point"},"type":"Feature","properties":{"address":"Príncipe 5 y Policarpo Sanz 8","image_uri":"http://www.turismodevigo.org/sites/turismodevigo/files/lug084.jpg","postcode":"36202","description":"Edificio comercial proyectado por Jenaro de la Fuente Álvarez a finales de la década de los años 20.","lon":-8.72087777735032,"title":"Edificio comercial de Príncipe","type":37,"layer":"lugares","phone":null,"web":null,"subcategoria":"Arquitectura civil","idpoi":8465,"mp3_uri":null,"lang":"es-ES","lat":42.2376581380734}},{"geometry":{"coordinates":[-8.72210223942349,42.2384317328684],"type":"Point"},"type":"Feature","properties":{"address":"Marqués de Valadares, 23","image_uri":"http://www.turismodevigo.org/sites/turismodevigo/files/lug085.jpg","postcode":"36201","description":"El edificio fue diseñado en 1949 por el arquitecto Francisco Castro Represas. Lo más destacable son los numerosos y amplios ventanales separados por delgadas pilastras.","lon":-8.72210223942349,"title":"Edificio comercial para José González","type":37,"layer":"lugares","phone":null,"web":null,"subcategoria":"Arquitectura civil","idpoi":8466,"mp3_uri":null,"lang":"es-ES","lat":42.2384317328684}},{"geometry":{"coordinates":[-8.72306812524044,42.2384565540258],"type":"Point"},"type":"Feature","properties":{"address":"Marqués de Valadares, 21","image_uri":"http://www.turismodevigo.org/sites/turismodevigo/files/lug086.jpg","postcode":"36201","description":"El edificio fue diseñado en 1948 por el arquitecto Manuel Cabanyens y Mata. Es un ejemplo de la arquitectura academicista monumentalista, aunque tiene algunas formas clasicistas.","lon":-8.72306812524044,"title":"Edificio da Equitativa","type":37,"layer":"lugares","phone":null,"web":null,"subcategoria":"Arquitectura civil","idpoi":8467,"mp3_uri":null,"lang":"es-ES","lat":42.2384565540258}},{"geometry":{"coordinates":[-8.71960638078445,42.237694436917],"type":"Point"},"type":"Feature","properties":{"address":"García Barbón, 5","image_uri":"http://www.turismodevigo.org/sites/turismodevigo/files/lug087.jpg","postcode":"36201","description":"El edificio fue construido en dos etapas. En la primera se construye la fachada principal de la calle García Barbón y el primer tramo de la calle Pontevedra; estas obras concluyen en 1900. Su dueño, José García Barbón, lo cede al Ayuntamiento.","lon":-8.71960638078445,"title":"Edificio da Escola de Artes e Oficios de Vigo","type":37,"layer":"lugares","phone":null,"web":null,"subcategoria":"Arquitectura civil","idpoi":8468,"mp3_uri":null,"lang":"es-ES","lat":42.237694436917}},{"geometry":{"coordinates":[-8.73338215000662,42.22859172522],"type":"Point"},"type":"Feature","properties":{"address":"Conde de Torrecedeira, 86","image_uri":"http://www.turismodevigo.org/sites/turismodevigo/files/lug088.jpg","postcode":"36202","description":"Edificio construido entre 1931-194 1 y proyectado por Jenaro de la Fuente Álvarez. Pertenecen ya a un eclecticismo academicista que se impuso entre los arquitectos vigueses en la segunda y tercera década del s. XX.","lon":-8.73338215000662,"title":"Edificio de Peritos","type":37,"layer":"lugares","phone":null,"web":null,"subcategoria":"Arquitectura civil","idpoi":8469,"mp3_uri":null,"lang":"es-ES","lat":42.22859172522}},{"geometry":{"coordinates":[-8.72576261424091,42.2383477852914],"type":"Point"},"type":"Feature","properties":{"address":"Plaza de la Constitución","image_uri":"http://www.turismodevigo.org/sites/turismodevigo/files/lug026.jpg","postcode":"36202","description":"El edificio fue diseñado en 1859-1860 por José María Ortiz. En la actualidad alberga una sala de exposiciones y la biblioteca de la Fundación Penzol, pero anteriormente fue la Casa Consistorial.","lon":-8.72576261424091,"title":"Antiga Casa do Concello de Vigo","type":37,"layer":"lugares","phone":null,"web":null,"subcategoria":"Arquitectura civil","idpoi":8408,"mp3_uri":null,"lang":"es-ES","lat":42.2383477852914}},{"geometry":{"coordinates":[-8.72175045763319,42.2369296902849],"type":"Point"},"type":"Feature","properties":{"address":"Velázquez Moreno, 53","image_uri":"http://www.turismodevigo.org/sites/turismodevigo/files/lug027.jpg","postcode":"36202","description":"Es un edificio de corte clásico academicista con un potente zócalo, elevadas pilastras uqe abarcan las dos plantas, zapaas decoradas con elementos vegetales, alquitrabe y una pronunciada cornisa que abarca todo el edificio.","lon":-8.72175045763319,"title":"Antigo edificio da Caixa de Aforros","type":37,"layer":"lugares","phone":null,"web":null,"subcategoria":"Arquitectura civil","idpoi":8409,"mp3_uri":null,"lang":"es-ES","lat":42.2369296902849}},{"geometry":{"coordinates":[-8.72458585151493,42.238988195287],"type":"Point"},"type":"Feature","properties":{"address":"Carral, 7, 9","image_uri":"http://www.turismodevigo.org/sites/turismodevigo/files/lug042.jpg","postcode":"36202","description":"El edificio fue diseñado en 1901, por Benito Gómez Román. Se trata de una obra con abundantes formas neogóticas y neorrománicas.","lon":-8.72458585151493,"title":"Casa de Francisca Alfaya","type":37,"layer":"lugares","phone":null,"web":null,"subcategoria":"Arquitectura civil","idpoi":8423,"mp3_uri":null,"lang":"es-ES","lat":42.238988195287}},{"geometry":{"coordinates":[-8.72134205215534,42.2384094317048],"type":"Point"},"type":"Feature","properties":{"address":"Marqués de Valadares, 37","image_uri":"http://www.turismodevigo.org/sites/turismodevigo/files/lug043.jpg","postcode":"36201","description":"El edificio fue diseñado por Manuel Gómez Román en 1928 para Joaquín de Miguel. Lo más destacado es su puerta de acceso enmarcada por dos pilastras lisas con aristas en las esquinas y un frontón en la parte superior.","lon":-8.72134205215534,"title":"Casa de Joaquín de Miguel","type":37,"layer":"lugares","phone":null,"web":null,"subcategoria":"Arquitectura civil","idpoi":8424,"mp3_uri":null,"lang":"es-ES","lat":42.2384094317048}},{"geometry":{"coordinates":[-8.72008389554333,42.2391518253007],"type":"Point"},"type":"Feature","properties":{"address":"Areal, 8, 10, 12 Y 14","image_uri":"http://www.turismodevigo.org/sites/turismodevigo/files/lug044.jpg","postcode":"36201","description":"El edificio fue diseñado en 1879 por Alejandro Rodríguez Sesmero. Se trata de un edificio con siete casas cuya fachada está tratada como única edificación.","lon":-8.72008389554333,"title":"Casa de Manuel Blanco García","type":37,"layer":"lugares","phone":null,"web":null,"subcategoria":"Arquitectura civil","idpoi":8425,"mp3_uri":null,"lang":"es-ES","lat":42.2391518253007}},{"geometry":{"coordinates":[-8.72557104952805,42.2379343827681],"type":"Point"},"type":"Feature","properties":{"address":"Porta do Sol, 11","image_uri":"http://www.turismodevigo.org/sites/turismodevigo/files/lug045.jpg","postcode":"36203","description":"El edificio fue diseñado en 1911 por Jenaro de la Fuente Domínguez. Fue edificada por el maestro cantero José Araujo Pérez para el rico comerciante Pardo Labarta.","lon":-8.72557104952805,"title":"Casa de Pardo Labarta","type":37,"layer":"lugares","phone":null,"web":null,"subcategoria":"Arquitectura civil","idpoi":8426,"mp3_uri":null,"lang":"es-ES","lat":42.2379343827681}},{"geometry":{"coordinates":[-8.72173426718392,42.2390857811294],"type":"Point"},"type":"Feature","properties":{"address":"Plaza de Compostela, 12","image_uri":"http://www.turismodevigo.org/sites/turismodevigo/files/lug046.jpg","postcode":"36201","description":"El edificio fue diseñado en 1900 por Michel Pacewicz. Es de estilo historicista con unas fachadas impresionantes, sobre todo la de la Plaza de Compostela.","lon":-8.72173426718392,"title":"Casa de Paulino Yáñez","type":37,"layer":"lugares","phone":null,"web":null,"subcategoria":"Arquitectura civil","idpoi":8427,"mp3_uri":null,"lang":"es-ES","lat":42.2390857811294}},{"geometry":{"coordinates":[-8.72435413798361,42.2395251443102],"type":"Point"},"type":"Feature","properties":{"address":"Plaza de Compostela, 31, 32,33","image_uri":"http://www.turismodevigo.org/sites/turismodevigo/files/lug048.jpg","postcode":"36202","description":"El edificio fue diseñado en 1912 por Manuel Gómez Román. Es una edificación modernista en la que destaca el uso de azulejo decorado, sobre una piedra de grano grueso y algo terrosa en los cuerpos salientes.","lon":-8.72435413798361,"title":"Casa de Saturnino García","type":37,"layer":"lugares","phone":null,"web":null,"subcategoria":"Arquitectura civil","idpoi":8429,"mp3_uri":null,"lang":"es-ES","lat":42.2395251443102}},{"geometry":{"coordinates":[-8.72599658989732,42.2378727803196],"type":"Point"},"type":"Feature","properties":{"address":"Abeleira Menéndez, 8","image_uri":"http://www.turismodevigo.org/sites/turismodevigo/files/lug049.jpg","postcode":"36202","description":"Edificio de características barrocas por sus recercados, cornisa y ménsulas escalonadas sobre las que descansan pequeños balcones.","lon":-8.72599658989732,"title":"Casa Diego Arias Taboada","type":37,"layer":"lugares","phone":null,"web":null,"subcategoria":"Arquitectura civil","idpoi":8430,"mp3_uri":null,"lang":"es-ES","lat":42.2378727803196}},{"geometry":{"coordinates":[-8.72417579894346,42.237661371759],"type":"Point"},"type":"Feature","properties":{"address":"Príncipe, 12","image_uri":"http://www.turismodevigo.org/sites/turismodevigo/files/lug050.jpg","postcode":"36203","description":"El edificio fue diseñado en 1925 por Jenaro de la Fuente Álvarez. Destaca por su decoración, sobre todo en las dos plantas superiores.","lon":-8.72417579894346,"title":"Casa Eligio Prieto Iglesias","type":37,"layer":"lugares","phone":null,"web":null,"subcategoria":"Arquitectura civil","idpoi":8431,"mp3_uri":null,"lang":"es-ES","lat":42.237661371759}},{"geometry":{"coordinates":[-8.72258374858253,42.237762985959],"type":"Point"},"type":"Feature","properties":{"address":"Policarpo Sanz, 19","image_uri":"http://www.turismodevigo.org/sites/turismodevigo/files/lug051.jpg","postcode":"36202","description":"El edificio fue diseñado en 1901 por Michel Pacewicz. Destaca por la preciosa labra de su cantería y su empinada cubierta con una esbelta buhardilla central.","lon":-8.72258374858253,"title":"Casa Enrique Lagos","type":37,"layer":"lugares","phone":null,"web":null,"subcategoria":"Arquitectura civil","idpoi":8432,"mp3_uri":null,"lang":"es-ES","lat":42.237762985959}},{"geometry":{"coordinates":[-8.72126254846485,42.2404836271025],"type":"Point"},"type":"Feature","properties":{"address":"Avda de Montero Ríos, 38","image_uri":"http://www.turismodevigo.org/sites/turismodevigo/files/lug041.jpg","postcode":"36201","description":"El edificio fue diseñado en 1904 por Jenaro de la Fuente Domínguez. Tiene cuatro plantas y un chaflán que sirve de eje de simetría entre sus dos fachadas.","lon":-8.72126254846485,"title":"Casa de Felipe Collazo","type":37,"layer":"lugares","phone":null,"web":null,"subcategoria":"Arquitectura civil","idpoi":8422,"mp3_uri":null,"lang":"es-ES","lat":42.2404836271025}},{"geometry":{"coordinates":[-8.72501324693812,42.2392878356784],"type":"Point"},"type":"Feature","properties":{"address":"Joaquín Yánez, 12","image_uri":"http://www.turismodevigo.org/sites/turismodevigo/files/lug040.jpg","postcode":"36202","description":"El edificio fue diseñado en 1876 por Alejandro Rodríguez Sesmero. Lo más destacable es la balaustrada de círculos entrelazados con jarrones sobre pedestales, que corona las dos fachadas.","lon":-8.72501324693812,"title":"Casa de Donesteve Quirós","type":37,"layer":"lugares","phone":null,"web":null,"subcategoria":"Arquitectura civil","idpoi":8421,"mp3_uri":null,"lang":"es-ES","lat":42.2392878356784}},{"geometry":{"coordinates":[-8.7207783005387,42.2391518228393],"type":"Point"},"type":"Feature","properties":{"address":"Plaza de Compostela, 21","image_uri":"http://www.turismodevigo.org/sites/turismodevigo/files/lug039.jpg","postcode":"36201","description":"El edificio fue diseñado por Manuel Gómez Román en 1942 para Domingo Davila. Destaca su puerta de acceso, enmarcada por aristas sobresalientes de la piedra lisa.","lon":-8.7207783005387,"title":"Casa de Domingo Davila","type":37,"layer":"lugares","phone":null,"web":null,"subcategoria":"Arquitectura civil","idpoi":8420,"mp3_uri":null,"lang":"es-ES","lat":42.2391518228393}},{"geometry":{"coordinates":[-8.68366618107154,42.1692802895494],"type":"Point"},"type":"Feature","properties":{"address":"Campus Universidade de Vigo","image_uri":"http://www.turismodevigo.org/sites/turismodevigo/files/lug029.jpg","postcode":"36310","description":"Presente físicamente en los tres campus, la Biblioteca Universitaria cuenta en cada uno de ellos con una biblioteca central y varias salas repartidas por las escuelas y facultades que componen la Universidad.","lon":-8.68366618107154,"title":"Biblioteca Universitaria de Vigo","type":37,"layer":"lugares","phone":"986813853","web":"www.uvigo.es/uvigo_gl/administracion/biblioteca/","subcategoria":"Biblioteca","idpoi":8411,"mp3_uri":null,"lang":"es-ES","lat":42.1692802895494}},{"geometry":{"coordinates":[-8.7217791030184,42.237813099648],"type":"Point"},"type":"Feature","properties":{"address":"Policarpo Sanz, 23","image_uri":"http://www.turismodevigo.org/sites/turismodevigo/files/lug030.jpg","postcode":"36202","description":"El edificio fue diseñado en 1897 por Pacewicz. La fachada del edificio tiene abundantes miradores y galerías de formas afiligranadas metálicas y muy decoradas.","lon":-8.7217791030184,"title":"Casa Acuña Soaje","type":37,"layer":"lugares","phone":null,"web":null,"subcategoria":"Arquitectura civil","idpoi":8412,"mp3_uri":null,"lang":"es-ES","lat":42.237813099648}},{"geometry":{"coordinates":[-8.72749134255561,42.2391849378605],"type":"Point"},"type":"Feature","properties":{"address":"Real, 14","image_uri":"http://www.turismodevigo.org/sites/turismodevigo/files/lug031.jpg","postcode":"36202","description":"El edificio fue diseñado en 1863 por Manuel de Uceda. Su estilo es ecléctico clasicista con reminiscencias del renacimiento italiano.","lon":-8.72749134255561,"title":"Casa Bárcena","type":37,"layer":"lugares","phone":null,"web":null,"subcategoria":"Arquitectura civil","idpoi":8413,"mp3_uri":null,"lang":"es-ES","lat":42.2391849378605}},{"geometry":{"coordinates":[-8.72049175111747,42.2361293963355],"type":"Point"},"type":"Feature","properties":{"address":"Colón, 42","image_uri":"http://www.turismodevigo.org/sites/turismodevigo/files/lug032.jpg","postcode":"36202","description":"El edificio fue diseñado en 1883 por Jenaro de la Fuente Domínguez. La parte alta tiene un reloj rodeado de orlas y guirnaldas y está flanqueado por dos jarrones sobre pedestales a cada lado.","lon":-8.72049175111747,"title":"Casa Bernardo Rodríguez López","type":37,"layer":"lugares","phone":null,"web":null,"subcategoria":"Arquitectura civil","idpoi":8414,"mp3_uri":null,"lang":"es-ES","lat":42.2361293963355}},{"geometry":{"coordinates":[-8.72458585151493,42.238988195287],"type":"Point"},"type":"Feature","properties":{"address":"Carral, 15","image_uri":"http://www.turismodevigo.org/sites/turismodevigo/files/lug033.jpg","postcode":"36202","description":"El edificio fue diseñado en 1898 por Benito Gómez Román y pertenece a familiares de éste.","lon":-8.72458585151493,"title":"Casa da rúa Carral","type":37,"layer":"lugares","phone":null,"web":null,"subcategoria":"Arquitectura civil","idpoi":8415,"mp3_uri":null,"lang":"es-ES","lat":42.238988195287}},{"geometry":{"coordinates":[-8.72860261002805,42.2386300667068],"type":"Point"},"type":"Feature","properties":{"address":"Real, 33","image_uri":null,"postcode":"36202","description":"Casa construida en el siglo XVIII con dos fachadas hechas con sillería apiconada, la que da a la rúa Alta y cincelada la que da a la rúa Real.","lon":-8.72860261002805,"title":"Casa de Araujo","type":37,"layer":"lugares","phone":null,"web":null,"subcategoria":"Arquitectura civil","idpoi":8416,"mp3_uri":null,"lang":"es-ES","lat":42.2386300667068}},{"geometry":{"coordinates":[-8.72752246902661,42.2389968976134],"type":"Point"},"type":"Feature","properties":{"address":"Real, 17","image_uri":"http://www.turismodevigo.org/sites/turismodevigo/files/lug035.jpg","postcode":"36202","description":"Casa sencilla construida con sillares de piedra. Destaca por su escudo señorial","lon":-8.72752246902661,"title":"Casa de Ceta o de Arines","type":37,"layer":"lugares","phone":null,"web":null,"subcategoria":"Arquitectura civil","idpoi":8417,"mp3_uri":null,"lang":"es-ES","lat":42.2389968976134}},{"geometry":{"coordinates":[-8.71846792584939,42.2351379684867],"type":"Point"},"type":"Feature","properties":{"address":"Urzáiz, 28","image_uri":"http://www.turismodevigo.org/sites/turismodevigo/files/lug036.jpg","postcode":"36203","description":"El edificio fue diseñado en 1913 por Jenaro de la Fuente Domínguez. El edificio es eclecticista pero incorpora elementos decorativos propios del modernismo que se estaban difundiendo.","lon":-8.71846792584939,"title":"Casa de Benigno y Camilo Fernández","type":37,"layer":"lugares","phone":null,"web":null,"subcategoria":"Arquitectura civil","idpoi":8418,"mp3_uri":null,"lang":"es-ES","lat":42.2351379684867}},{"geometry":{"coordinates":[-8.72342947344299,42.238964629033],"type":"Point"},"type":"Feature","properties":{"address":"Plaza de Compostela","image_uri":"http://www.turismodevigo.org/sites/turismodevigo/files/lug038.jpg","postcode":"36201","description":"El edificio fue diseñado en 1920 por Manuel Gómez Román. Es una construcción sencilla, con una planta baja, tres altas y un torreón sobre el chaflán.","lon":-8.72342947344299,"title":"Casa de Correos y Telégrafos de Vigo","type":37,"layer":"lugares","phone":null,"web":null,"subcategoria":"Arquitectura civil","idpoi":8419,"mp3_uri":null,"lang":"es-ES","lat":42.238964629033}}],"type":"FeatureCollection"}